,ADDRESS,STOPS,WEIGHT,lat,lng
0,1200 DEAN KEETON,515,1.0,30.2859502,-97.7236068
1,13200 N 183,500,0.9708737864077671,30.4414896,-97.783751
2,7200 FM 2222 RD,481,0.933980582524272,30.342471000000003,-97.7389465
3,5200 FM 2222,409,0.7941747572815534,30.41768799999999,-97.6991515
4,9000 N MOPAC EXPY,390,0.7572815533980582,30.371707699999998,-97.7406695
5,13600 N US 183 HWY NB,371,0.7203883495145631,30.5060468,-97.8203465
6,13600 N 183,365,0.7087378640776699,30.4743675,-97.7804686
7,8000 MANCHACA RD,323,0.6271844660194175,30.1918776,-97.8125117
8,12900 N 183,323,0.6271844660194175,30.4743675,-97.7804686
9,1000BL EAST DEAN KEETON,313,0.6077669902912621,30.2884104,-97.73078350000002
10,5600 E BEN WHITE BLVD SVRD EB,313,0.6077669902912621,,
11,5300 N IH 35,295,0.5728155339805825,30.312034000000004,-97.70954090000001
12,700 BL EAST DEAN KEETON,287,0.5572815533980583,30.289466700000002,-97.7313141
13,13600 N IH 35,285,0.5533980582524272,30.423793800000002,-97.6718288
14,100 W BRAKER LANE,273,0.5300970873786408,30.379017100000002,-97.6813251
15,12900 N US 183 HWY NB,272,0.5281553398058253,30.5060468,-97.8203465
16,13200 N US 183 HWY NB,251,0.48737864077669896,30.5060468,-97.8203465
17,5600 S MOPAC,239,0.4640776699029126,30.17323189999999,-97.88789270000001
18,3400 ED BLUESTEIN BLVD,237,0.4601941747572815,30.269819000000002,-97.670314
19,NORTH I-35 EF,218,0.4233009708737864,30.336970500000003,-97.69955490000001
20,9200 N MOPAC,218,0.4233009708737864,30.371707699999998,-97.7406695
21,5400 WEST GATE BLVD,213,0.4135922330097088,30.221857500000002,-97.80631600000001
22,11900 N IH 35,209,0.4058252427184466,30.3848571,-97.6736373
23,900 W PARMER,207,0.4019417475728155,30.4079603,-97.6786152
24,11900 N MOPAC EXPY,196,0.38058252427184464,30.371707699999998,-97.7406695
25,13800-13600 N IH 35 SVRD SB,192,0.37281553398058254,,
26,1000 E DEAN KEETON,189,0.366990291262136,30.287138,-97.7263251
27,3700 FM 2222,177,0.34368932038834954,30.41768799999999,-97.6991515
28,7000 E 290 SVRD WB,167,0.3242718446601941,,
29,13200 N US 183 HWY SB,166,0.32233009708737864,,
30,9200 N MOPAC EXPY NB,156,0.3029126213592233,,
31,3700 FM2222,154,0.29902912621359223,30.41768799999999,-97.6991515
32,11500 N MOPAC EXPY,153,0.2970873786407767,30.4083821,-97.7262444
33,13500 RESEARCH BLVD NB,152,0.2951456310679612,30.370976000000002,-97.72681700000001
34,14100 AVERY RANCH BLVD,150,0.2912621359223301,30.495390999999998,-97.78911109999999
35,7100 BLOCK EAST US HIGHWAY 290,150,0.2912621359223301,30.232907399999995,-97.7975128
36,13200 N US 183,150,0.2912621359223301,30.4414896,-97.783751
37,14600 N IH 35,149,0.28932038834951457,30.4374979,-97.670357
38,2800 S IH 35,147,0.2854368932038835,30.2289341,-97.7452339
39,12900 RESEARCH BLVD NB,146,0.283495145631068,30.370976000000002,-97.72681700000001
40,7900 N LAMAR,146,0.283495145631068,30.348349600000006,-97.7125254
41,13200 BLOCK NORTH US HIGHWAY 183,144,0.2796116504854369,30.002528100000003,-97.6859985
42,3100 S US 183 HWY SB,144,0.2796116504854369,,
43,8900 RESEARCH BLVD SVC,142,0.2757281553398058,30.4316955,-97.7658616
44,5300 S IH 35 SVRD,142,0.2757281553398058,30.234234100000002,-97.82874709999999
45,11500 FOUR IRON,141,0.2737864077669903,30.4316544,-97.77829840000001
46,9000 N MOPAC,132,0.2563106796116505,30.371707699999998,-97.7406695
47,2200 ENFIELD,130,0.2524271844660194,30.2876756,-97.7661391
48,7400 E BEN WHITE BLVD EB,128,0.24854368932038834,30.2214658,-97.7567376
49,13600 N I 35 SVRD,127,0.24660194174757286,,
50,5600 N IH 35,127,0.24660194174757286,30.3161304,-97.7079623
51,13000 N US 183 HWY SB,126,0.2446601941747573,,
52,900 BLOCK WEST PARMER LANE,124,0.2407766990291262,30.4079603,-97.6786152
53,1100 AIRPORT,124,0.2407766990291262,30.2656092,-97.69590670000001
54,3700 MANCHACA,123,0.2388349514563107,30.23644479999999,-97.7845632
55,5800 S MOPAC,123,0.2388349514563107,30.3398125,-97.7551215
56,300 E BRAKER LANE,121,0.2349514563106796,30.378530100000003,-97.68016290000001
57,9400 N LAMAR BLVD,121,0.2349514563106796,30.36338439999999,-97.69684140000001
58,1900 ED BLUESTEIN,120,0.2330097087378641,30.259364299999998,-97.675497
59,12100 N IH 35,120,0.2330097087378641,30.3879623,-97.67355
60,13600 N US 183,119,0.2310679611650485,30.2480512,-97.6907829
61,13600 BLOCK NORTH US HIGHWAY 183,118,0.22912621359223298,30.002528100000003,-97.6859985
62,4000 S US HWY 183,116,0.22524271844660196,30.1924164,-97.6851865
63,13200 RESEARCH BLVD NB,113,0.21941747572815531,30.370976000000002,-97.72681700000001
64,5100 N IH 35,112,0.2174757281553398,30.569450800000002,-97.6959691
65,7400 BLOCK EAST US HIGHWAY 290,112,0.2174757281553398,30.329896899999998,-97.6615018
66,1000 BLOCK EAST DEAN KEETON STREET,112,0.2174757281553398,30.287138,-97.7263251
67,13800 S IH 35,111,0.21553398058252424,30.107692600000004,-97.8083524
68,NORTH IH 35 SERVICE ROAD AT,109,0.2116504854368932,30.485510100000003,-97.6763142
69,12000 N IH35 SVC,109,0.2116504854368932,30.386896399999998,-97.6735311
70,1100 BLK AIRPORT,109,0.2116504854368932,30.2656092,-97.69590670000001
71,12000 S IH 35,109,0.2116504854368932,30.1227584,-97.8032488
72,1200 BLOCK DEAN KEETON,107,0.20776699029126214,30.2859502,-97.7236068
73,8800 ANDERSON MILL RD,107,0.20776699029126214,30.45510089999999,-97.770411
74,13000 N 183,105,0.20388349514563106,30.437323499999998,-97.7772938
75,8800 ANDERSON MILL,105,0.20388349514563106,30.45510089999999,-97.770411
76,13600 RESEARCH BLVD,104,0.20194174757281552,30.453283000000003,-97.7927995
77,14000 N US 183,101,0.19611650485436893,30.2480512,-97.6907829
78,1000 BLOCK EAST DEAN KEETON,99,0.19223300970873786,30.287138,-97.7263251
79,3400 E MLK,98,0.19029126213592232,30.283424,-97.7001839
80,13700 N US 183 HWY SB,98,0.19029126213592232,,
81,4300 S 1ST,97,0.1883495145631068,30.222945000000003,-97.772082
82,13200 N US 183 SVRD,96,0.18640776699029127,,
83,4500 N IH 35,96,0.18640776699029127,30.303407699999998,-97.714911
84,1800 E RIVERSIDE DR,94,0.1825242718446602,30.243439000000002,-97.72937320000001
85,4000 BLOCK SOUTH US HIGHWAY 183,94,0.1825242718446602,30.1924164,-97.6851865
86,6000 N MOPAC EXPY,94,0.1825242718446602,30.371707699999998,-97.7406695
87,8700 N MOPAC EXPY,93,0.18058252427184465,30.371707699999998,-97.7406695
88,13700 N US 183,92,0.1786407766990291,30.2480512,-97.6907829
89,100 BLOCK WEST BRAKER LANE,89,0.17281553398058253,30.379017100000002,-97.6813251
90,13100 S IH 35,88,0.17087378640776701,30.112893,-97.8076476
91,12300 RIATA TRACE PKWY,87,0.16893203883495145,30.42928109999999,-97.7475985
92,100 S 1ST ST,86,0.1669902912621359,30.262196000000003,-97.7482379
93,7100 E 290 SVRD WB,86,0.1669902912621359,,
94,3700 MANCHACA RD,85,0.1650485436893204,30.23644479999999,-97.7845632
95,1100 BLOCK AIRPORT BOULEVARD,83,0.16116504854368932,30.2656092,-97.69590670000001
96,1200 BLOCK DEAN KEETON STREET,83,0.16116504854368932,30.2859502,-97.7236068
97,13600 BLOCK NORTH IH 35,83,0.16116504854368932,30.423793800000002,-97.6718288
98,7600 E BEN WHITE BLVD WB,82,0.15922330097087378,30.217121999999996,-97.7433205
99,13300 S IH 35,81,0.15728155339805824,30.4198617,-97.673208
100,1200 WINSTED LN,80,0.1553398058252427,30.2841708,-97.7665654
101,11000 N IH 35,80,0.1553398058252427,30.143978000000004,-97.79524740000001
102,1200 W ANDERSON LN,78,0.15145631067961166,30.349968800000003,-97.7178507
103,700 BLOCK EAST DEAN KEETON,78,0.15145631067961166,30.289466700000002,-97.7313141
104,5200 BLOCK FM 2222,78,0.15145631067961166,30.41768799999999,-97.6991515
105,7200 BLOCK RANCH ROAD 2222,78,0.15145631067961166,30.358471500000004,-97.7866598
106,2300 ENFIELD,77,0.14951456310679612,30.288095399999996,-97.7671057
107,SOUTH IH 35 SERVICE ROAD,76,0.14757281553398058,30.3005675,-97.7152308
108,12900 S IH 35 NB,76,0.14757281553398058,30.27559,-97.74257
109,2200 BLK ENFIELD RD,76,0.14757281553398058,30.2876756,-97.7661391
110,8900 BLOCK RESEARCH BOULEVARD,76,0.14757281553398058,30.370419399999996,-97.72145359999999
111,5200 BLOCK RANCH ROAD 2222,75,0.14563106796116504,30.358471500000004,-97.7866598
112,4700 E CESAR CHAVEZ,75,0.14563106796116504,30.252094399999997,-97.70115600000001
113,13000 RESEARCH BLVD,74,0.1436893203883495,30.4384223,-97.7768956
114,1000 BLOCK ED BLUESTEIN BOULEVARD,73,0.141747572815534,30.252851,-97.6817594
115,100 BLOCK WEST STASSNEY LANE,72,0.13980582524271845,30.2050032,-97.7748116
116,100 E BRAKER LANE,72,0.13980582524271845,30.379013300000004,-97.6813166
117,1800 BLOCK EAST RIVERSIDE DRIVE,72,0.13980582524271845,30.243439000000002,-97.72937320000001
118,7900 N MOPAC EXPY,72,0.13980582524271845,30.371707699999998,-97.7406695
119,3000 S US HWY 183,71,0.1378640776699029,30.2070797,-97.684444
120,9000 BLOCK NORTH MOPAC EXPRESSWAY,71,0.1378640776699029,30.3742785,-97.7297767
121,6200 N CAPITAL OF TEXAS HWY,70,0.13592233009708735,30.361145299999997,-97.7906995
122,7400 E HWY 290,70,0.13592233009708735,30.2307295,-97.879355
123,900 BLOCK EAST DEAN KEETON,70,0.13592233009708735,30.287883299999997,-97.7266795
124,900 W PARMER LN,70,0.13592233009708735,30.4079603,-97.6786152
125,3600 BLOCK PRESIDENTIAL BOULEVARD,70,0.13592233009708735,30.2021489,-97.666829
126,12900 BLOCK NORTH US HIGHWAY 183,69,0.13398058252427186,30.002528100000003,-97.6859985
127,500 MONTOPOLIS DR,69,0.13398058252427186,30.2406218,-97.6940603
128,900 E OLTORF ST,69,0.13398058252427186,30.2364038,-97.7472233
129,8300 S 1ST,68,0.13203883495145632,30.1804305,-97.7959021
130,8000 MANCHACA,68,0.13203883495145632,30.1918776,-97.8125117
131,4200 S US 183 HWY NB,68,0.13203883495145632,30.5060468,-97.8203465
132,13700 S IH 35,68,0.13203883495145632,30.1084468,-97.80801290000001
133,3400 BLOCK ED BLUESTEIN BOULEVARD,66,0.12815533980582525,30.269819000000002,-97.670314
134,6600 S MOPAC,66,0.12815533980582525,30.2205343,-97.8376428
135,700 BLOCK EAST DEAN KEETON STREET,66,0.12815533980582525,30.289466700000002,-97.7313141
136,5300 BLOCK NORTH IH 35,65,0.1262135922330097,30.312034000000004,-97.70954090000001
137,13900 AVERY RANCH BLVD,65,0.1262135922330097,30.4946165,-97.7884757
138,6500 BLOCK EAST BEN WHITE BOULEVARD,65,0.1262135922330097,30.213610100000004,-97.709174
139,100 S 1ST,64,0.12427184466019416,30.2605781,-97.7456796
140,7800 BLK WEST GATE BLVD,64,0.12427184466019416,30.19931789999999,-97.8222416
141,9100 N MOPAC EXPY,63,0.12233009708737864,30.371707699999998,-97.7406695
142,13800 N US 183,63,0.12233009708737864,30.2480512,-97.6907829
143,7300 E US HWY 290 EB,63,0.12233009708737864,30.230750699999998,-97.8793192
144,5100 BLOCK NORTH IH 35,63,0.12233009708737864,30.310190600000002,-97.7113343
145,700 BLOCK EAST DEAN KEATON,62,0.1203883495145631,30.289466700000002,-97.7313141
146,2600 E MLK BLVD,62,0.1203883495145631,30.281564000000003,-97.714005
147,4600 E CESAR CHAVEZ,62,0.1203883495145631,30.25206249999999,-97.703694
148,8300 N IH 35,62,0.1203883495145631,30.3460048,-97.6971094
149,12000 BLOCK SOUTH IH 35,62,0.1203883495145631,30.1227584,-97.8032488
150,14000 S IH 35,62,0.1203883495145631,30.1059161,-97.8091501
151,12500 S IH 35,62,0.1203883495145631,30.40531889999999,-97.67608890000001
152,12000 N MOPAC EXPY,61,0.11844660194174755,30.4095518,-97.71578829999999
153,SOUTH 1ST STREET,60,0.11650485436893206,30.206771999999997,-97.78235600000001
154,2200 ENFIELD RD,60,0.11650485436893206,30.2876756,-97.7661391
155,4900 S CONGRESS,60,0.11650485436893206,30.2125184,-97.7705147
156,7100 BLOCK HIGHWAY 290 EAST,60,0.11650485436893206,30.232989399999997,-97.87566899999999
157,N IH 35 SVRD,60,0.11650485436893206,30.420285600000003,-97.671757
158,EAST 7TH STREET,60,0.11650485436893206,30.2614402,-97.7172262
159,1000 EAST DEAN KEETON,59,0.1145631067961165,30.287138,-97.7263251
160,700 BL EAST DEAN KEETON STREET,59,0.1145631067961165,30.289466700000002,-97.7313141
161,5000 BLOCK NORTH IH 35,59,0.1145631067961165,30.3092277,-97.7114435
162,5200 BLOCK EAST RIVERSIDE DRIVE,59,0.1145631067961165,30.230431199999998,-97.7143482
163,13800 N IH 35 SVRD SB,58,0.11262135922330095,,
164,5800 N MOPAC EXPY,57,0.11067961165048544,30.3398125,-97.7551215
165,4100 BLOCK SOUTH US HIGHWAY 183,57,0.11067961165048544,30.1913494,-97.6853765
166,4500 MANCHACA,57,0.11067961165048544,30.2276749,-97.7899382
167,7100 BLOCK EAST US HIGHWAY 290 SERVICE,56,0.1087378640776699,30.3227865,-97.6826532
168,5600 BLOCK SOUTH MOPAC EXPRESSWAY,56,0.1087378640776699,30.17323189999999,-97.88789270000001
169,3700 BLOCK MANCHACA ROAD,56,0.1087378640776699,30.2363876,-97.7844384
170,8000 N LAMAR BLVD,56,0.1087378640776699,30.348535899999998,-97.7123558
171,7900 BLOCK NORTH LAMAR BOULEVARD,56,0.1087378640776699,30.348349600000006,-97.7125254
172,4500 MANCHACA RD,56,0.1087378640776699,30.2276749,-97.7899382
173,12000 N IH 35 SVRD,55,0.10679611650485436,,
174,12000 N MOPAC,54,0.10485436893203884,30.4095518,-97.71578829999999
175,BLOCK N IH 35 SVRD,54,0.10485436893203884,30.3154622,-97.7051168
176,4900 S 1ST ST,54,0.10485436893203884,30.215093699999997,-97.7780554
177,13700 RESEARCH BLVD NB,54,0.10485436893203884,30.370976000000002,-97.72681700000001
178,7900 N LAMAR BLVD,53,0.1029126213592233,30.348349600000006,-97.7125254
179,8000 BLOCK MANCHACA ROAD,53,0.1029126213592233,30.1918776,-97.8125117
180,9400 BLOCK NORTH LAMAR BOULEVARD,52,0.10097087378640776,30.36338439999999,-97.69684140000001
181,NORTH IH 35,52,0.10097087378640776,30.342750399999996,-97.7037491
182,9200 N MOPAC EXPY,52,0.10097087378640776,30.371707699999998,-97.7406695
183,S 1ST ST,52,0.10097087378640776,30.206771999999997,-97.78235600000001
184,4000 AIRPORT BLVD,52,0.10097087378640776,30.291544000000002,-97.707656
185,2600 E MLK,51,0.09902912621359224,30.281564000000003,-97.714005
186,12100 BLOCK NORTH IH 35,51,0.09902912621359224,30.3879623,-97.67355
187,7500 E HWY 290,51,0.09902912621359224,30.2307083,-97.8793909
188,3100 BLOCK SOUTH US HIGHWAY 183,51,0.09902912621359224,30.204880100000004,-97.6837403
189,8400 S 1ST ST,51,0.09902912621359224,30.1793479,-97.7961198
190,9200 BLOCK NORTH MOPAC EXPRESSWAY,51,0.09902912621359224,30.3742785,-97.7297767
191,1600 ENFIELD,51,0.09902912621359224,30.282777000000003,-97.7578285
192,3000 S 1ST ST,51,0.09902912621359224,30.235431300000002,-97.76426490000001
193,8000 N IH 35,50,0.0970873786407767,30.3413011,-97.6991575
194,5300 BLOCK SOUTH IH 35 SERVICE ROAD,50,0.0970873786407767,30.4122515,-97.6745935
195,8900 RESEARCH BLVD,50,0.0970873786407767,30.3681913,-97.7224479
196,2300 BLOCK ENFIELD ROAD,49,0.09514563106796116,30.639204499999998,-96.34261090000001
197,5000 N IH 35,49,0.09514563106796116,30.205326300000003,-97.7605719
198,5600 BLOCK EAST BEN WHITE BOULEVARD,49,0.09514563106796116,30.213613199999998,-97.7188089
199,900 BLOCK EAST DEAN KEETON STREET,49,0.09514563106796116,30.287883299999997,-97.7266795
200,3700 BLOCK FM 2222,48,0.09320388349514563,30.41768799999999,-97.6991515
201,100 W BRAKER,48,0.09320388349514563,30.379017100000002,-97.6813251
202,3800 FM2222,48,0.09320388349514563,30.41768799999999,-97.6991515
203,11900 BLOCK NORTH IH 35,48,0.09320388349514563,30.3848571,-97.6736373
204,13600 BLOCK NORTH IH 35 SERVICE ROAD,48,0.09320388349514563,30.4232656,-97.67211540000001
205,4300 S 1ST ST,47,0.0912621359223301,30.222945000000003,-97.772082
206,5300 S IH 35,47,0.0912621359223301,30.202877700000002,-97.761932
207,7200 S 1ST,47,0.0912621359223301,30.1912646,-97.7911512
208,5000 S CONGRESS,47,0.0912621359223301,30.2119685,-97.7716496
209,7100 BLOCK 290 EAST,47,0.0912621359223301,30.328457899999997,-97.92523359999998
210,13800-13200 N IH 35 SVRD SB,46,0.08932038834951456,,
211,200 E BRAKER LN,46,0.08932038834951456,30.378714600000002,-97.6806054
212,5200 N IH 35,46,0.08932038834951456,30.3113689,-97.7110314
213,13300 RESEARCH BLVD,46,0.08932038834951456,30.444624100000002,-97.78663900000001
214,7200 LOYOLA,45,0.08737864077669902,30.297618699999997,-97.64101059999999
215,2900 S IH 35 NB,45,0.08737864077669902,30.27042,-97.74444
216,3800 FM 2222,45,0.08737864077669902,30.41768799999999,-97.6991515
217,3200 BLOCK SOUTH US HIGHWAY 183,45,0.08737864077669902,30.202627000000003,-97.6841593
218,13000 N IH 35,45,0.08737864077669902,30.410918199999998,-97.67599940000001
219,6100 N CAPITAL OF TEXAS HWY NB,44,0.0854368932038835,30.333084000000003,-97.808205
220,8700 ANDERSON MILL RD,44,0.0854368932038835,30.455106699999998,-97.7703916
221,5100 S 1ST ST,44,0.0854368932038835,30.213015500000004,-97.7783855
222,5300 S IH 35 SB,44,0.0854368932038835,30.1594697,-97.7926701
223,13600 N IH 35 SVRD SB,43,0.08349514563106795,,
224,8200 S 1ST,43,0.08349514563106795,30.1814912,-97.7949176
225,BLOCK S 1ST ST,43,0.08349514563106795,30.206771999999997,-97.78235600000001
226,7900 MANCHACA RD,43,0.08349514563106795,30.1924053,-97.8121798
227,1900 BLOCK ED BLUESTEIN BOULEVARD,42,0.08155339805825243,30.259364299999998,-97.675497
228,7100 BLOCK EAST HIGHWAY 290,42,0.08155339805825243,30.232989399999997,-97.87566899999999
229,US HIGHWAY 183,42,0.08155339805825243,30.476168199999996,-97.78122940000002
230,NORTH I-35 SVRD,42,0.08155339805825243,30.336970500000003,-97.69955490000001
231,45TH STREET,42,0.08155339805825243,30.30571939999999,-97.7215439
232,13600 S IH 35,42,0.08155339805825243,30.1090327,-97.8077411
233,14200 N IH 35,41,0.07961165048543689,30.8468917,-97.5943686
234,6000 BLOCK NORTH MOPAC EXPRESSWAY,41,0.07961165048543689,30.3742785,-97.7297767
235,EAST 6TH STREET,41,0.07961165048543689,30.263388,-97.72753890000001
236,900 BLOCK EAST DEAN KEATON STREET,41,0.07961165048543689,30.287883299999997,-97.7266795
237,7200 S 1ST ST,41,0.07961165048543689,30.1912646,-97.7911512
238,7500 E US HWY 290 WB,40,0.07766990291262135,30.232220799999997,-97.87867940000001
239,14500 N IH 35,40,0.07766990291262135,30.4341887,-97.6699933
240,7200 FM 2222 ROAD,40,0.07766990291262135,30.342471000000003,-97.7389465
241,3900 SPICEWOOD SPRINGS RD,40,0.07766990291262135,30.366750699999997,-97.7504736
242,4800 S IH 35 SVRD SB,40,0.07766990291262135,30.207515100000002,-97.7583318
243,4800 WEST PARMER LANE,39,0.07572815533980583,30.429829100000003,-97.723458
244,13600 N US 183 HWY,39,0.07572815533980583,30.2480512,-97.6907829
245,8900 BLK RESEARCH BLVD,39,0.07572815533980583,30.370419399999996,-97.72145359999999
246,12600 S IH 35,39,0.07572815533980583,30.4114672,-97.6743422
247,1100 WINSTED LN,39,0.07572815533980583,30.283494,-97.76683879999999
248,3900 AIRPORT BLVD,39,0.07572815533980583,30.289931,-97.707749
249,BLOCK S IH 35 SVRD NB,39,0.07572815533980583,30.165836,-97.79277320000001
250,13000 N US 183,38,0.07378640776699029,30.437323499999998,-97.7772938
251,16100 AVERY RANCH BLVD,38,0.07378640776699029,30.503408500000003,-97.7520651
252,8000 BLOCK NORTH LAMAR BOULEVARD,38,0.07378640776699029,30.348535899999998,-97.7123558
253,2100 ENFIELD,38,0.07378640776699029,30.287212800000002,-97.7657195
254,13000 S IH 35 NB,38,0.07378640776699029,30.27042,-97.74444
255,NORTH IH 35 SERVICE ROAD AND,38,0.07378640776699029,30.3005675,-97.7152308
256,4500 N IH 35 NB,38,0.07378640776699029,,
257,4300 S 1ST STREET,38,0.07378640776699029,30.222945000000003,-97.772082
258,12000 SOUTH I-35,38,0.07378640776699029,30.1227584,-97.8032488
259,900 BLOCK EAST DEAN KEATON,37,0.07184466019417475,30.287883299999997,-97.7266795
260,5300 WEST GATE BLVD,37,0.07184466019417475,30.223821500000003,-97.80505059999999
261,13000 BLOCK NORTH US HIGHWAY 183,37,0.07184466019417475,30.002528100000003,-97.6859985
262,11600 S IH 35,37,0.07184466019417475,30.1360958,-97.7980755
263,8200 N MOPAC EXPY,37,0.07184466019417475,30.369330600000005,-97.7434543
264,11900 BLOCK NORTH MOPAC EXPRESSWAY,37,0.07184466019417475,30.3742785,-97.7297767
265,7800 N LAMAR,36,0.06990291262135923,30.3463255,-97.7145342
266,BLOCK N I 35 SVRD,36,0.06990291262135923,30.3154622,-97.7051168
267,7100 BLOCK US HIGHWAY 290,36,0.06990291262135923,30.2335308,-97.8762008
268,1500 ED BLUESTEIN,36,0.06990291262135923,30.2584244,-97.6760785
269,N I 35 SVRD,36,0.06990291262135923,30.420285600000003,-97.671757
270,10500 METRIC,36,0.06990291262135923,30.3839409,-97.7133979
271,100 W STASSNEY,36,0.06990291262135923,30.2050032,-97.7748116
272,3500 BLOCK NORTH MOPAC EXPRESSWAY,36,0.06990291262135923,30.3742785,-97.7297767
273,IH 35,36,0.06990291262135923,30.2649227,-97.735013
274,13000 AVERY RANCH,35,0.06796116504854369,30.4946165,-97.7884757
275,1100 WINSTEAD,35,0.06796116504854369,30.283494,-97.76683879999999
276,8700 BLOCK NORTH MOPAC EXPRESSWAY,35,0.06796116504854369,30.3742785,-97.7297767
277,5700 BLOCK NORTH MOPAC EXPRESSWAY,35,0.06796116504854369,30.3742785,-97.7297767
278,8700 BRODIE LN,35,0.06796116504854369,30.19721299999999,-97.841282
279,1200 DEAN K,35,0.06796116504854369,30.2859502,-97.7236068
280,5400 BLOCK WEST GATE BOULEVARD,34,0.06601941747572816,30.206751500000003,-97.81576240000001
281,1200 BLOCK WEST ANDERSON LANE,34,0.06601941747572816,30.349968800000003,-97.7178507
282,1800 RIVERSIDE,34,0.06601941747572816,30.243439000000002,-97.72937320000001
283,5000 S MOPAC,34,0.06601941747572816,30.227208500000003,-97.83118490000001
284,8800 BURNET RD,34,0.06601941747572816,30.370612400000002,-97.7275927
285,WEST 6TH STREET,34,0.06601941747572816,30.273019899999998,-97.7579551
286,8800 N MOPAC,34,0.06601941747572816,30.371707699999998,-97.7406695
287,7100 BLOCK EAST 290 SERVICE ROAD,34,0.06601941747572816,30.232907399999995,-97.7975128
288,7100 BLOCK EAST HIGHWAY 290 SERVICE ROAD,34,0.06601941747572816,30.2376403,-97.8394527
289,8900 BURNET RD,34,0.06601941747572816,30.3721484,-97.72678420000001
290,12500 S IH 35 NB,34,0.06601941747572816,30.27042,-97.74444
291,13200 SOUTH I-35,34,0.06601941747572816,30.416870399999997,-97.6738045
292,NORTH I H 35 SERVICE ROAD,33,0.06407766990291262,30.30324899999999,-97.71470090000001
293,3700 BLOCK RANCH ROAD 2222,33,0.06407766990291262,30.358471500000004,-97.7866598
294,1600 BLOCK ENFIELD ROAD,33,0.06407766990291262,30.282777000000003,-97.7578285
295,8300 S 1ST ST,33,0.06407766990291262,30.1804305,-97.7959021
296,12000 N IH 35,33,0.06407766990291262,30.395139899999997,-97.6725693
297,LAKE AUSTIN ZONE 5,33,0.06407766990291262,,
298,N IH 35 SVRD NB,33,0.06407766990291262,30.420285600000003,-97.671757
299,14000 S IH 35 NB,33,0.06407766990291262,30.27042,-97.74444
300,12200 N MOPAC EXPY,33,0.06407766990291262,30.4143534,-97.70783
301,BLOCK S IH 35 SVRD SB,33,0.06407766990291262,30.165836,-97.79277320000001
302,6TH STREET,33,0.06407766990291262,30.273019899999998,-97.7579551
303,3200 S US 183 HWY SB,33,0.06407766990291262,,
304,4500 N MOPAC,32,0.062135922330097085,30.371707699999998,-97.7406695
305,4900 BLOCK SOUTH 1ST STREET,32,0.062135922330097085,30.215093699999997,-97.7780554
306,2500 E RIVERSIDE DR,32,0.062135922330097085,30.2354798,-97.7235459
307,13700 BLOCK NORTH US HIGHWAY 183,32,0.062135922330097085,30.002528100000003,-97.6859985
308,EAST 8TH STREET,32,0.062135922330097085,30.265595899999997,-97.7278932
309,12000 N IH 35 SVC,32,0.062135922330097085,30.386896399999998,-97.6735311
310,100 BLK W. BRAKER LN,32,0.062135922330097085,30.379017100000002,-97.6813251
311,5600 BLOCK NORTH IH 35,32,0.062135922330097085,30.3161304,-97.7079623
312,4300 BLOCK SOUTH 1ST STREET,31,0.06019417475728155,30.222945000000003,-97.772082
313,11500 S IH 35,31,0.06019417475728155,30.135298,-97.803239
314,13000 S IH 35,31,0.06019417475728155,30.410918199999998,-97.67599940000001
315,LAKE AUSTIN ZONE 1,31,0.06019417475728155,30.292007399999996,-97.783058
316,9000 RESEARCH BLVD,31,0.06019417475728155,30.3729779,-97.7267318
317,1000 B E DEAN KEETON STREET,31,0.06019417475728155,30.287138,-97.7263251
318,12000 BLOCK NORTH IH 35 SERVICE ROAD,31,0.06019417475728155,30.386896399999998,-97.6735311
319,7500 N MOPAC EXPY,31,0.06019417475728155,30.371707699999998,-97.7406695
320,14000 BLOCK NORTH US HIGHWAY 183,31,0.06019417475728155,30.002528100000003,-97.6859985
321,8000 N LAMAR,31,0.06019417475728155,30.348535899999998,-97.7123558
322,2000 BLOCK ED BLUESTEIN BOULEVARD,30,0.05825242718446603,30.2596977,-97.6752747
323,4400 N IH 35,30,0.05825242718446603,30.2119055,-97.7567437
324,7700 N MOPAC,30,0.05825242718446603,30.371707699999998,-97.7406695
325,8100 S 1ST ST,30,0.05825242718446603,30.1820835,-97.7945008
326,5600 E WILLIAM CANNON,30,0.05825242718446603,30.176053399999997,-97.7436573
327,4000 BLOCK SOUTH HIGHWAY 183,30,0.05825242718446603,30.1924164,-97.6851865
328,4800 S IH 35 SVRD,30,0.05825242718446603,30.207515100000002,-97.7583318
329,1200 W 6TH,30,0.05825242718446603,30.2729962,-97.7571812
330,7100 BLOCK US HIGHWAY 290 SERVICE ROAD,30,0.05825242718446603,30.235615000000003,-97.8536471
331,3800 BLOCK NORTH MOPAC EXPRESSWAY,30,0.05825242718446603,30.3742785,-97.7297767
332,1400 ED BLUESTEIN,30,0.05825242718446603,30.256834899999998,-97.6770368
333,12500 BLOCK SOUTH IH 35,30,0.05825242718446603,30.2410624,-97.7373993
334,N IH 35 SVRD SB,30,0.05825242718446603,30.406499199999995,-97.6762538
335,2200 BLOCK ENFIELD ROAD,30,0.05825242718446603,30.2876756,-97.7661391
336,11500 BLOCK NORTH MOPAC EXPRESSWAY,30,0.05825242718446603,30.4083821,-97.7262444
337,500 BLOCK MONTOPOLIS DRIVE,30,0.05825242718446603,30.240394399999996,-97.6935647
338,30TH STREET,30,0.05825242718446603,30.298698100000003,-97.7462325
339,6800 W WILLIAM CANNON DR,29,0.056310679611650476,30.2473392,-97.86557109999998
340,S IH 35 SVRD NB,29,0.056310679611650476,30.224140000000002,-97.74466600000001
341,EAST 5TH STREET,29,0.056310679611650476,30.259311199999996,-97.7190772
342,8800 BLOCK ANDERSON MILL ROAD,29,0.056310679611650476,30.45510089999999,-97.770411
343,700 BLOCK EAST 7TH STREET,29,0.056310679611650476,30.2671135,-97.7352308
344,1800 WILLOW CREEK,29,0.056310679611650476,30.235412100000005,-97.7273727
345,3000 LAKE AUSTIN BLVD,29,0.056310679611650476,30.2853273,-97.7783346
346,7TH STREET,29,0.056310679611650476,30.2614402,-97.7172262
347,3000 BLOCK SOUTH US HIGHWAY 183,29,0.056310679611650476,30.2070797,-97.684444
348,13000 BLOCK SOUTH IH 35,29,0.056310679611650476,30.2410624,-97.7373993
349,IH 35 SERVICE ROAD,29,0.056310679611650476,30.3005675,-97.7152308
350,7500 E HWY 290 SVC,29,0.056310679611650476,30.235615000000003,-97.8536471
351,5300 WESTGATE BLVD,29,0.056310679611650476,30.223821500000003,-97.80505059999999
352,13500 S IH 35 NB,29,0.056310679611650476,30.27559,-97.74257
353,5500 N MOPAC,29,0.056310679611650476,30.231234999999998,-97.829085
354,7100 BLOCK EAST US HIGHWAY 290 SERVICE R,29,0.056310679611650476,30.232907399999995,-97.7975128
355,4700 BLOCK EAST CESAR CHAVEZ STREET,29,0.056310679611650476,30.252094399999997,-97.70115600000001
356,8200 N IH 35,29,0.056310679611650476,30.345027299999998,-97.6972089
357,7000 N MOPAC,28,0.05436893203883495,30.371707699999998,-97.7406695
358,2100 BARTON SPRINGS RD,28,0.05436893203883495,30.2660703,-97.7691348
359,6500 N CAPITAL OF TEXAS HWY,28,0.05436893203883495,30.365645100000002,-97.7900879
360,100 E BRAKER,28,0.05436893203883495,30.379013300000004,-97.6813166
361,1800 E RIVERSIDE,28,0.05436893203883495,30.243439000000002,-97.72937320000001
362,12000 BLOCK NORTH IH 35,28,0.05436893203883495,30.395139899999997,-97.6725693
363,6900 MANCHACA RD,28,0.05436893203883495,30.203355900000002,-97.8068041
364,4800 BLOCK SOUTH IH 35 SERVICE ROAD,28,0.05436893203883495,30.4122515,-97.6745935
365,7100 BLOCK US HIGHWAY 290 EAST,27,0.05242718446601942,30.232989399999997,-97.87566899999999
366,8300 BLOCK SOUTH 1ST STREET,27,0.05242718446601942,30.181160700000003,-97.7947428
367,4500 BLOCK NORTH IH 35,27,0.05242718446601942,30.303407699999998,-97.714911
368,7900 BLK N. LAMAR BLVD,27,0.05242718446601942,30.348349600000006,-97.7125254
369,8800 N MOPAC EXPY NB,27,0.05242718446601942,30.3523179,-97.6926844
370,2600 E MARTIN LUTHER KING,27,0.05242718446601942,30.281564000000003,-97.714005
371,1100 AIRPORT BLVD,27,0.05242718446601942,30.2656092,-97.69590670000001
372,12300 RIATA TRACE,27,0.05242718446601942,30.42928109999999,-97.7475985
373,8900 BLOCK RESEARCH BOULEVARD SERVICE,27,0.05242718446601942,30.3735983,-97.7250664
374,14000 AVERY RANCH BLVD,27,0.05242718446601942,30.4946165,-97.7884757
375,14000 BLOCK SOUTH IH 35,27,0.05242718446601942,30.2410624,-97.7373993
376,7700 BLOCK NORTH MOPAC EXPRESSWAY,27,0.05242718446601942,30.3742785,-97.7297767
377,11200 S IH 35,27,0.05242718446601942,30.139497600000002,-97.797284
378,6600 S MOPAC EXPY,27,0.05242718446601942,30.2205343,-97.8376428
379,2800 BLOCK SOUTH IH 35,27,0.05242718446601942,30.2289341,-97.7452339
380,7300 LOYOLA LN,27,0.05242718446601942,30.297315500000003,-97.6402759
381,100 BLK W. RUNDBERG LN,27,0.05242718446601942,30.361743,-97.693405
382,14600 BLOCK NORTH IH 35,27,0.05242718446601942,30.4374979,-97.670357
383,2500 BLOCK BARTON SPRINGS ROAD,27,0.05242718446601942,30.2678744,-97.772116
384,13500 N IH 35,27,0.05242718446601942,30.420695799999997,-97.6726157
385,4000 BLOCK AIRPORT BOULEVARD,26,0.05048543689320388,30.291544000000002,-97.707656
386,8800 BLOCK NORTH MOPAC EXPRESSWAY,26,0.05048543689320388,30.3742785,-97.7297767
387,1600 ED BLUESTEIN,26,0.05048543689320388,30.2586455,-97.6759379
388,600 MONTOPOLIS,26,0.05048543689320388,30.239074699999996,-97.6945522
389,S IH 35 SVRD SB,26,0.05048543689320388,30.1600245,-97.7905271
390,13500 BLOCK RESEARCH BOULEVARD,26,0.05048543689320388,30.449877899999997,-97.79027409999999
391,13400 S IH 35 NB,26,0.05048543689320388,30.27559,-97.74257
392,14000 N MOPAC EXPY,26,0.05048543689320388,30.354659899999998,-97.7486437
393,12900 N US 183 HWY,26,0.05048543689320388,30.2480512,-97.6907829
394,9000 BLOCK RESEARCH BOULEVARD,26,0.05048543689320388,30.3729779,-97.7267318
395,12000 BLOCK NORTH MOPAC EXPRESSWAY,26,0.05048543689320388,30.4095518,-97.71578829999999
396,4700 E CESAR CHAVEZ ST,26,0.05048543689320388,30.252094399999997,-97.70115600000001
397,13200 N US 183 HWY,26,0.05048543689320388,30.4414896,-97.783751
398,7900 N. LAMAR BLVD,26,0.05048543689320388,30.348349600000006,-97.7125254
399,9400 RESEARCH BLVD,26,0.05048543689320388,30.384982,-97.743773
400,2300 BARTON SPRINGS RD,25,0.04854368932038835,30.2678744,-97.772116
401,4000 S US 183 HWY NB,25,0.04854368932038835,30.5060468,-97.8203465
402,12800 N US 183 HWY NB,25,0.04854368932038835,30.5060468,-97.8203465
403,10000 N MOPAC,25,0.04854368932038835,30.371707699999998,-97.7406695
404,3400 BLOCK EAST MARTIN LUTHER KING,25,0.04854368932038835,30.283424,-97.7001839
405,100 W. RUNDBERG LN,25,0.04854368932038835,30.361743,-97.693405
406,8100 BLOCK NORTH MOPAC EXPRESSWAY,25,0.04854368932038835,30.365533600000003,-97.7448106
407,4300 DAVIS LN,25,0.04854368932038835,30.199412100000004,-97.8535955
408,800 BLOCK EAST WILLIAM CANNON DRIVE,25,0.04854368932038835,30.191370000000003,-97.7718392
409,13800 AVERY RANCH BLVD,25,0.04854368932038835,30.4946165,-97.7884757
410,4600 BLK CESAR CHAVEZ,25,0.04854368932038835,30.252119399999994,-97.70141629999999
411,1600 E OLTORF,25,0.04854368932038835,30.2340225,-97.7395537
412,NORTH IH35 SERVICE ROAD,25,0.04854368932038835,30.3005675,-97.7152308
413,4100 BLOCK SOUTH 183,25,0.04854368932038835,30.1913494,-97.6853765
414,4800 BLK CESAR CHAVEZ,25,0.04854368932038835,30.2520695,-97.7008957
415,6000 N IH 35,25,0.04854368932038835,30.1969727,-97.7661871
416,13800 TO 13600 BLOCK NORTH IH 35,25,0.04854368932038835,30.4264128,-97.6719343
417,7200 FM 2222,25,0.04854368932038835,30.41768799999999,-97.6991515
418,8200 BLOCK MANCHACA ROAD,25,0.04854368932038835,30.190333000000003,-97.8134851
419,8200 MANCHACA,25,0.04854368932038835,30.190333000000003,-97.8134851
420,7400 E BEN WHITE BLVD WB,25,0.04854368932038835,30.2175581,-97.6874256
421,13700 AVERY RANCH BLVD,24,0.04660194174757282,30.4946165,-97.7884757
422,1800 S IH 35 NB,24,0.04660194174757282,30.27042,-97.74444
423,600 BLOCK NORTH IH 35 SERVICE ROAD,24,0.04660194174757282,30.265884000000003,-97.7350266
424,14200 AVERY RANCH BLVD,24,0.04660194174757282,30.4946165,-97.7884757
425,13200 N US 183 SVRD NB,24,0.04660194174757282,,
426,12900 BLOCK SOUTH IH 35,24,0.04660194174757282,30.2410624,-97.7373993
427,5200 DUVAL RD,24,0.04660194174757282,30.4168502,-97.7407652
428,5600 MANCHACA RD,24,0.04660194174757282,30.2153799,-97.7977714
429,1600 BLOCK EAST RIVERSIDE DRIVE,24,0.04660194174757282,30.245804600000003,-97.7310725
430,8800 BLOCK RESEARCH BOULEVARD,24,0.04660194174757282,30.367007399999995,-97.719266
431,1700 BLOCK ED BLUESTEIN BOULEVARD,24,0.04660194174757282,30.258866700000002,-97.6757972
432,1600 E RIVERSIDE DR,24,0.04660194174757282,30.245804600000003,-97.7310725
433,200 E BRAKER,24,0.04660194174757282,30.378714600000002,-97.6806054
434,100 BLOCK EAST BRAKER LANE,24,0.04660194174757282,30.379013300000004,-97.6813166
435,2300 ENFIELD RD,24,0.04660194174757282,30.288095399999996,-97.7671057
436,6400 N MOPAC EXPY,24,0.04660194174757282,30.371707699999998,-97.7406695
437,2500 BLOCK EAST RIVERSIDE DRIVE,24,0.04660194174757282,30.2354798,-97.7235459
438,BLOCK N IH 35 SVRD NB,24,0.04660194174757282,30.3154622,-97.7051168
439,3400 BLOCK EAST MARTIN LUTHER KING JR,24,0.04660194174757282,30.283424,-97.7001839
440,5000 BLOCK SOUTH CONGRESS AVENUE,24,0.04660194174757282,30.2119685,-97.7716496
441,5700 BLOCK EAST WILLIAM CANNON DRIVE,23,0.04466019417475728,30.17515,-97.7429753
442,100 BLOCK SOUTH 1ST STREET,23,0.04466019417475728,30.262196000000003,-97.7482379
443,9800 ANDERSON MILL RD,23,0.04466019417475728,30.4476017,-97.7985414
444,4800 BLOCK SOUTH 1ST STREET,23,0.04466019417475728,30.2148249,-97.7775157
445,7200 BLOCK FM 2222 ROAD,23,0.04466019417475728,30.342471000000003,-97.7389465
446,8300 BLOCK NORTH IH 35,23,0.04466019417475728,30.346034399999997,-97.6971305
447,5500 S MOPAC,23,0.04466019417475728,30.231234999999998,-97.829085
448,5900 MANCHACA RD,23,0.04466019417475728,30.2136484,-97.8008931
449,8600 N MOPAC,23,0.04466019417475728,30.371707699999998,-97.7406695
450,7900 S MOPAC EXPWY NB,23,0.04466019417475728,30.27559,-97.74257
451,12000 PECAN CREEK PKWY,23,0.04466019417475728,30.4534325,-97.8086056
452,5200 BLOCK EAST RIVERSIDE,23,0.04466019417475728,30.230431199999998,-97.7143482
453,13600 N US HWY 183 NB,23,0.04466019417475728,30.4743675,-97.7804686
454,4500 BLOCK MANCHACA ROAD,23,0.04466019417475728,30.2276749,-97.7899382
455,6000 N MOPAC,23,0.04466019417475728,30.371707699999998,-97.7406695
456,7300 E US HWY 290 SVRD WB,23,0.04466019417475728,,
457,7000 BLOCK EAST US HIGHWAY 290,23,0.04466019417475728,30.329896899999998,-97.6615018
458,2800 S IH 35 NB,23,0.04466019417475728,30.27042,-97.74444
459,12800 S IH 35,23,0.04466019417475728,30.115961100000003,-97.8059878
460,12500 RESEARCH BLVD,23,0.04466019417475728,30.428891600000004,-97.7595409
461,1000BL EAST DEEN KEETON,23,0.04466019417475728,30.2884104,-97.73078350000002
462,300 E BRAKER LN,23,0.04466019417475728,30.378530100000003,-97.68016290000001
463,9500 BLOCK NORTH LAMAR BOULEVARD,22,0.04271844660194175,30.364534000000003,-97.696729
464,11000 BLOCK NORTH IH 35,22,0.04271844660194175,30.373285100000004,-97.6803362
465,200 BLK E. BRAKER LN,22,0.04271844660194175,30.378714600000002,-97.6806054
466,3300 S IH 35 NB,22,0.04271844660194175,30.27042,-97.74444
467,5800 N CAPITAL OF TEXAS HWY NB,22,0.04271844660194175,30.333084000000003,-97.808205
468,2000 ED BLUESTEIN,22,0.04271844660194175,30.2596977,-97.6752747
469,9000 N IH 35,22,0.04271844660194175,30.354660499999998,-97.6913363
470,700 MONTOPOLIS,22,0.04271844660194175,30.2375391,-97.6953411
471,WEST 24TH STREET,22,0.04271844660194175,30.288124,-97.7473034
472,5500 N IH 35,22,0.04271844660194175,30.314324300000003,-97.70860959999999
473,9500 N LAMAR BLVD,22,0.04271844660194175,30.364534000000003,-97.696729
474,3300 E SH 71,22,0.04271844660194175,30.202067800000002,-97.6380858
475,700 BLOCK NORTH IH 35 SERVICE ROAD,22,0.04271844660194175,30.2668669,-97.7346612
476,14100 BLOCK AVERY RANCH BOULEVARD,22,0.04271844660194175,30.495390999999998,-97.78911109999999
477,5700 N. FM 360 HWY,22,0.04271844660194175,,
478,8000 N MOPAC,22,0.04271844660194175,30.371707699999998,-97.7406695
479,10000 N IH 35,22,0.04271844660194175,30.364706199999997,-97.68432440000001
480,NORTH IH35 SERVICE ROAD AT,21,0.04077669902912622,30.485510100000003,-97.6763142
481,5TH STREET,21,0.04077669902912622,30.2516429,-97.6972114
482,12100 METRIC BLVD,21,0.04077669902912622,30.4034718,-97.70026120000001
483,10500 METRIC BLVD,21,0.04077669902912622,30.3839409,-97.7133979
484,300 E. BRAKER LN,21,0.04077669902912622,30.378530100000003,-97.68016290000001
485,13600 AVERY RANCH BLVD,21,0.04077669902912622,30.4946165,-97.7884757
486,7500 N MOPAC,21,0.04077669902912622,30.371707699999998,-97.7406695
487,EAST 12TH STREET,21,0.04077669902912622,30.275075199999996,-97.7116139
488,6500 BLOCK EAST BEN WHITE SERVICE ROAD,21,0.04077669902912622,30.213842600000003,-97.7322266
489,3700 FM 2222 RD,21,0.04077669902912622,30.342471000000003,-97.7389465
490,3400 E MARTIN LUTHER KING JR BLVD,21,0.04077669902912622,30.283424,-97.7001839
491,7100 BLK E US HWY 290 SVRD,21,0.04077669902912622,,
492,13500 BLOCK NORTH US HIGHWAY 183,21,0.04077669902912622,30.002528100000003,-97.6859985
493,5900 N MOPAC SB,21,0.04077669902912622,,
494,6500 N CAPITAL OF TEXAS HWY NB,21,0.04077669902912622,30.388232000000002,-97.727049
495,3800 MANCHACA RD,21,0.04077669902912622,30.235596100000002,-97.7846418
496,2000 N MOPAC,21,0.04077669902912622,30.2275267,-97.8308725
497,7100 BLOCK 290 EAST NORTH SERVICE ROAD,21,0.04077669902912622,30.2629465,-97.7361439
498,9300 RESEARCH BLVD NB,21,0.04077669902912622,30.370976000000002,-97.72681700000001
499,7600 N MOPAC EXPY,21,0.04077669902912622,30.371707699999998,-97.7406695
500,7900 BLOCK MANCHACA ROAD,21,0.04077669902912622,30.1924053,-97.8121798
501,4600 BLOCK NORTH IH 35,21,0.04077669902912622,30.304706,-97.714149
502,6400 E BEN WHITE BLVD SVRD EB,21,0.04077669902912622,,
503,3200 S IH 35 NB,21,0.04077669902912622,30.27559,-97.74257
504,1200 E DEAN KEETON,20,0.03883495145631068,30.2859502,-97.7236068
505,4900 S CONGRESS AVE,20,0.03883495145631068,30.2125184,-97.7705147
506,1500 W WILLIAM CANNON DR,20,0.03883495145631068,30.201591999999998,-97.7997945
507,14000 N MOPAC,20,0.03883495145631068,30.354659899999998,-97.7486437
508,11000 RESEARCH BLVD NB,20,0.03883495145631068,30.370976000000002,-97.72681700000001
509,10500 N MOPAC EXPY SB,20,0.03883495145631068,,
510,7000 N IH 35,20,0.03883495145631068,30.331684999999997,-97.7055041
511,8000 N MOPAC EXPY,20,0.03883495145631068,30.371707699999998,-97.7406695
512,3800 N MOPAC EXPY SB,20,0.03883495145631068,,
513,13700 BLOCK SOUTH IH 35,20,0.03883495145631068,30.2410624,-97.7373993
514,11900 METRIC BLVD,20,0.03883495145631068,30.400382500000003,-97.7040759
515,2222,20,0.03883495145631068,30.358471500000004,-97.7866598
516,13800 BLOCK SOUTH IH 35,20,0.03883495145631068,30.2410624,-97.7373993
517,13600 HWY 183 N B,20,0.03883495145631068,30.4743675,-97.7804686
518,5300 E RIVERSIDE DR,20,0.03883495145631068,30.2300243,-97.7134579
519,13200 BLOCK RESEARCH BOULEVARD,20,0.03883495145631068,30.441500899999998,-97.7836306
520,4800 BLOCK EAST CESAR CHAVEZ STREET,20,0.03883495145631068,30.2520695,-97.7008957
521,13600 BLOCK RESEARCH BOULEVARD,20,0.03883495145631068,30.453283000000003,-97.7927995
522,300 S CONGRESS AVE,20,0.03883495145631068,30.2585338,-97.7468844
523,11600 N MOPAC EXPY,20,0.03883495145631068,30.371707699999998,-97.7406695
524,300 PLEASANT VALLEY,20,0.03883495145631068,30.2425673,-97.71717190000001
525,13000 BLOCK NORTH IH 35,20,0.03883495145631068,30.410918199999998,-97.67599940000001
526,4900 FM 2222,20,0.03883495145631068,30.41768799999999,-97.6991515
527,5000 WEST GATE BLVD,20,0.03883495145631068,30.2267637,-97.8035621
528,8900 BLOCK NORTH LAMAR BOULEVARD,20,0.03883495145631068,30.357654800000002,-97.7000945
529,4000 W BRAKER LN,20,0.03883495145631068,30.397987199999996,-97.7364167
530,4800 S 1ST STREET,20,0.03883495145631068,30.2148249,-97.7775157
531,10100 N MOPAC,20,0.03883495145631068,30.371707699999998,-97.7406695
532,12900 BLOCK RESEARCH BOULEVARD,20,0.03883495145631068,30.43634149999999,-97.77288100000001
533,EAST 51ST STREET,20,0.03883495145631068,30.3014374,-97.69308670000001
534,7800 WEST GATE BLVD,20,0.03883495145631068,30.19931789999999,-97.8222416
535,1600 BLOCK EAST WILLIAM CANNON DRIVE,20,0.03883495145631068,30.190048200000003,-97.7696271
536,9900 N MOPAC EXPY,20,0.03883495145631068,30.371707699999998,-97.7406695
537,6500 N MOPAC,20,0.03883495145631068,30.345878999999996,-97.75210340000001
538,12200 RESEARCH BLVD,20,0.03883495145631068,30.4254608,-97.7536682
539,3000 N MOPAC,20,0.03883495145631068,30.2006941,-97.86698759999999
540,13500 N MOPAC BLVD,20,0.03883495145631068,30.371707699999998,-97.7406695
541,5300 E BEN WHITE BLVD SVRD EB,20,0.03883495145631068,,
542,3400 MARTIN LUTHER KING,20,0.03883495145631068,30.283424,-97.7001839
543,9900 N MOPAC,20,0.03883495145631068,30.371707699999998,-97.7406695
544,11800 S IH 35,20,0.03883495145631068,30.1286108,-97.8010562
545,100 W RUNDBERG,20,0.03883495145631068,30.361743,-97.693405
546,2000 ED BLUESIEIN SB,19,0.036893203883495145,,
547,5800 N IH 35 SB,19,0.036893203883495145,,
548,1500 E RIVERSIDE,19,0.036893203883495145,30.2467652,-97.73162109999998
549,3000 S 1ST,19,0.036893203883495145,30.235431300000002,-97.76426490000001
550,5600 BLOCK SOUTH 1ST STREET,19,0.036893203883495145,30.208028999999996,-97.7823233
551,1200 BLOCK DEAN KEATON,19,0.036893203883495145,30.2859502,-97.7236068
552,12500 RESEARCH BLVD NB,19,0.036893203883495145,30.370976000000002,-97.72681700000001
553,5800 BLOCK SOUTH MOPAC EXPRESSWAY,19,0.036893203883495145,30.17414329999999,-97.8864655
554,13400 RESEARCH BLVD NB SVRD,19,0.036893203883495145,30.4409061,-97.7799269
555,1500 BLK W STASSNEY LN,19,0.036893203883495145,30.212988399999997,-97.7918102
556,BLOCK N IH 35 SVRD SB,19,0.036893203883495145,30.3154622,-97.7051168
557,2200 BLOCK BARTON SPRINGS ROAD,19,0.036893203883495145,30.2678744,-97.772116
558,600 BLOCK EAST 7TH STREET,19,0.036893203883495145,30.267422600000003,-97.7368247
559,12200 N 183,19,0.036893203883495145,30.4743675,-97.7804686
560,6500 N MOPAC EXPY,19,0.036893203883495145,30.345878999999996,-97.75210340000001
561,7200 BLK LOYOLA,19,0.036893203883495145,30.297618699999997,-97.64101059999999
562,3200 BLOCK LAKE AUSTIN BOULEVARD,19,0.036893203883495145,30.285446000000004,-97.7784246
563,12000 METRIC BLVD,19,0.036893203883495145,30.402561,-97.701992
564,5600 N IH 35 SB,19,0.036893203883495145,,
565,1400 W. ANDERSON LA,19,0.036893203883495145,30.351257699999998,-97.7198091
566,9200 N MOPAC BLVD,19,0.036893203883495145,30.371707699999998,-97.7406695
567,13100 N US 183 HWY NB,19,0.036893203883495145,30.5060468,-97.8203465
568,14000 N IH35,19,0.036893203883495145,30.4293775,-97.6707686
569,10000 N MOPAC EXPY,19,0.036893203883495145,30.371707699999998,-97.7406695
570,7300 BLOCK LOYOLA LANE,19,0.036893203883495145,30.297315500000003,-97.6402759
571,13000 RESEARCH BLVD.,19,0.036893203883495145,30.4384223,-97.7768956
572,13000 N US 183 HWY NB,19,0.036893203883495145,30.5060468,-97.8203465
573,38TH STREET,19,0.036893203883495145,30.3058678,-97.7445794
574,600 E WILLIAM CANNON,19,0.036893203883495145,30.192140000000002,-97.7730071
575,4400 MANCHACA RD,19,0.036893203883495145,30.2295502,-97.7889509
576,13100 BLOCK SOUTH IH 35,19,0.036893203883495145,30.2410624,-97.7373993
577,7100 BLOCK U S HIGHWAY 290,19,0.036893203883495145,30.2335308,-97.8762008
578,S 1ST,19,0.036893203883495145,30.206771999999997,-97.78235600000001
579,1600 E RIVERSIDE DRIVE,19,0.036893203883495145,30.245804600000003,-97.7310725
580,5100 N IH 35 SB,19,0.036893203883495145,,
581,4500 N MOPAC SB,19,0.036893203883495145,,
582,5300 BLOCK SOUTH IH 35,19,0.036893203883495145,30.202877700000002,-97.761932
583,1000 EAST DEAN KEETON STREET,18,0.03495145631067961,30.287138,-97.7263251
584,4800 S 1ST ST,18,0.03495145631067961,30.2148249,-97.7775157
585,13500 RESEARCH BLVD SB,18,0.03495145631067961,30.3560315,-97.7479089
586,8TH STREET,18,0.03495145631067961,30.265595899999997,-97.7278932
587,3300 BLOCK LAKE AUSTIN BOULEVARD,18,0.03495145631067961,30.2855053,-97.7784696
588,13500 N US 183 HWY NB,18,0.03495145631067961,30.5060468,-97.8203465
589,4600 MANCHACA RD,18,0.03495145631067961,30.2270265,-97.79118509999999
590,1200 BLOCK WEST 6TH STREET,18,0.03495145631067961,30.2729962,-97.7571812
591,8000 BLOCK NORTH MOPAC EXPRESSWAY,18,0.03495145631067961,30.3742785,-97.7297767
592,7200 BLOCK LOYOLA LANE,18,0.03495145631067961,30.297618699999997,-97.64101059999999
593,5100 S CONGRESS AVE,18,0.03495145631067961,30.210111600000005,-97.7720301
594,1500 BLOCK ED BLUESTEIN BOULEVARD,18,0.03495145631067961,30.2584244,-97.6760785
595,13500 N MOPAC,18,0.03495145631067961,30.371707699999998,-97.7406695
596,50 N IH 35 NB,18,0.03495145631067961,30.143386,-97.793332
597,5400 N IH 35,18,0.03495145631067961,30.314484000000004,-97.7083075
598,2300 BLK ENFIELD RD,18,0.03495145631067961,30.2877953,-97.7673314
599,7700 N MOPAC EXPY,18,0.03495145631067961,30.371707699999998,-97.7406695
600,7300 LOYOLA,18,0.03495145631067961,30.297315500000003,-97.6402759
601,7300 S CONGRESS AVE,18,0.03495145631067961,30.1862218,-97.781224
602,LAKE AUSTIN ZONE 9,18,0.03495145631067961,30.428387400000002,-97.685266
603,7100 BLOCK EAST 290,18,0.03495145631067961,30.232989399999997,-97.87566899999999
604,13200 N I 35 SVRD,18,0.03495145631067961,,
605,4900 BLOCK SOUTH CONGRESS AVENUE,18,0.03495145631067961,30.2125184,-97.7705147
606,11500 N MOPAC EXPY NB,18,0.03495145631067961,30.326284,-97.739566
607,500 E BRAKER LANE,18,0.03495145631067961,30.3787475,-97.6784059
608,700 BLOCK MONTOPOLIS DRIVE,18,0.03495145631067961,30.2375391,-97.6953411
609,3500 BLOCK FM 2222,18,0.03495145631067961,30.41768799999999,-97.6991515
610,3000 BLOCK NORTH MOPAC EXPRESSWAY,18,0.03495145631067961,30.3742785,-97.7297767
611,4100 S US 183 HWY NB,18,0.03495145631067961,30.5060468,-97.8203465
612,5000 N MOPAC,18,0.03495145631067961,30.371707699999998,-97.7406695
613,6800 BLOCK NORTH MOPAC EXPRESSWAY,18,0.03495145631067961,30.3742785,-97.7297767
614,13000 SOUTH I-35,18,0.03495145631067961,30.410918199999998,-97.67599940000001
615,3500 N MOPAC SB,18,0.03495145631067961,,
616,7800 N LAMAR BLVD SB,18,0.03495145631067961,30.415734999999998,-97.675538
617,1600 BLOCK NORTH IH 35 SERVICE ROAD,18,0.03495145631067961,30.2760279,-97.7314063
618,13000 RESEARCH BLVD SVRD,18,0.03495145631067961,30.4409061,-97.7799269
619,14000 N US 183 HWY,18,0.03495145631067961,30.2480512,-97.6907829
620,200 BLOCK BRAZOS STREET,18,0.03495145631067961,30.2639381,-97.74286500000001
621,13200 RESEARCH BLVD,18,0.03495145631067961,30.441500899999998,-97.7836306
622,10000 BLOCK SOUTH IH 35,18,0.03495145631067961,30.1572846,-97.7906944
623,1400 W ANDERSON,18,0.03495145631067961,30.351257699999998,-97.7198091
624,2000 S US HWY 183,17,0.03300970873786408,30.2596977,-97.6752747
625,8000 S IH 35,17,0.03300970873786408,30.177319899999997,-97.7805697
626,7800 N MOPAC,17,0.03300970873786408,30.361893,-97.7458065
627,4500 BLOCK EAST RIVERSIDE DRIVE,17,0.03300970873786408,30.2324663,-97.7204632
628,500 E WILLIAM CANNON,17,0.03300970873786408,30.192448300000002,-97.77504640000001
629,2600 PARKER LN,17,0.03300970873786408,30.229436600000003,-97.7390014
630,3200 BLOCK SOUTH 183,17,0.03300970873786408,30.202627000000003,-97.6841593
631,3000 BLOCK SOUTH IH 35,17,0.03300970873786408,30.227203000000003,-97.7461338
632,4600 BLOCK EAST CESAR CHAVEZ STREET,17,0.03300970873786408,30.252119399999994,-97.70141629999999
633,7200 BLOCK SOUTH 1ST STREET,17,0.03300970873786408,30.1912646,-97.7911512
634,1900 ED BLUESTIEN,17,0.03300970873786408,30.259364299999998,-97.675497
635,4800 BLOCK SOUTH CONGRESS AVENUE,17,0.03300970873786408,30.213883799999998,-97.7700171
636,5900 N MOPAC NB,17,0.03300970873786408,,
637,SOUTH IH 35 SERVICE ROAD AT,17,0.03300970873786408,30.1373595,-97.7976178
638,5700 S MOPAC,17,0.03300970873786408,30.228018100000003,-97.83130940000001
639,13000 N US 183 HWY,17,0.03300970873786408,30.437323499999998,-97.7772938
640,400 W. BRAKER LN,17,0.03300970873786408,30.3802135,-97.6834804
641,12300 BLOCK RIATA TRACE PARKWAY,17,0.03300970873786408,30.42928109999999,-97.7475985
642,11900 N MOPAC EXPY NB,17,0.03300970873786408,,
643,800 BLOCK EAST DEAN KEETON STREET,17,0.03300970873786408,30.289539399999995,-97.7306265
644,11000 S IH 35 NB,17,0.03300970873786408,30.27042,-97.74444
645,7200 LOYOLA LN,17,0.03300970873786408,30.297618699999997,-97.64101059999999
646,7600 BLOCK NORTH MOPAC EXPRESSWAY,17,0.03300970873786408,30.3742785,-97.7297767
647,3800 AIRPORT BLVD,17,0.03300970873786408,30.28754429999999,-97.7076005
648,2400 BLOCK EAST RIVERSIDE DRIVE,17,0.03300970873786408,30.2365803,-97.72389040000002
649,15000 FOUR IRON,17,0.03300970873786408,30.437307300000004,-97.7807411
650,9000 RESEARCH BLVD SB,17,0.03300970873786408,30.415734999999998,-97.675538
651,12900 N US 183,17,0.03300970873786408,30.2480512,-97.6907829
652,2700 BLOCK BARTON SPRINGS ROAD,17,0.03300970873786408,30.2678744,-97.772116
653,7000 BLOCK NORTH MOPAC EXPRESSWAY,17,0.03300970873786408,30.3538378,-97.7495633
654,12000 S IH 35 NB,17,0.03300970873786408,30.27042,-97.74444
655,5000 S IH 35,17,0.03300970873786408,30.205326300000003,-97.7605719
656,3400 E MARTIN LUTHER KING,17,0.03300970873786408,30.283424,-97.7001839
657,8500 N CAPITAL OF TEXAS HWY,17,0.03300970873786408,30.385944199999997,-97.7656614
658,2000 S IH 35,17,0.03300970873786408,30.237388399999997,-97.73978170000001
659,100 W. RUNDBURG LANE,17,0.03300970873786408,30.361743,-97.693405
660,4800 SPICEWOOD SPGS RD,17,0.03300970873786408,30.376653499999996,-97.76327510000002
661,3300 S IH 35,17,0.03300970873786408,30.2248598,-97.747702
662,5800 BLOCK NORTH IH 35,17,0.03300970873786408,30.475692300000002,-97.67207
663,7000 N MOPAC EXPY,17,0.03300970873786408,30.371707699999998,-97.7406695
664,500 MONTOPOLIS,17,0.03300970873786408,30.2406218,-97.6940603
665,4500 N MOPAC EXPY,16,0.031067961165048542,30.371707699999998,-97.7406695
666,1200 DEAN KEETON STREET,16,0.031067961165048542,30.2859502,-97.7236068
667,300 PLEASANT VALLEY RD,16,0.031067961165048542,30.2425673,-97.71717190000001
668,5600 BLOCK MANCHACA ROAD,16,0.031067961165048542,30.2153799,-97.7977714
669,51ST STREET,16,0.031067961165048542,30.3187353,-97.7308792
670,8100 N MOPAC EXPY,16,0.031067961165048542,30.365533600000003,-97.7448106
671,4200 BLOCK SOUTH US HIGHWAY 183,16,0.031067961165048542,30.190224,-97.6862997
672,3000 BLOCK SOUTH 1ST STREET,16,0.031067961165048542,30.2354605,-97.7638346
673,8100 S MOPAC,16,0.031067961165048542,30.365533600000003,-97.7448106
674,1400 W ANDERSON LN,16,0.031067961165048542,30.351257699999998,-97.7198091
675,8300 BLOCK NORTH MOPAC EXPRESSWAY,16,0.031067961165048542,30.3707359,-97.74293540000001
676,1500 W ANDERSON LN,16,0.031067961165048542,30.35242059999999,-97.7207811
677,5000 N IH 35 SB,16,0.031067961165048542,,
678,8200 BLOCK MANCHACA,16,0.031067961165048542,30.190333000000003,-97.8134851
679,1600 WM CANNON,16,0.031067961165048542,30.201911,-97.8007753
680,1200 BLOCK DEAN KEATON STREET,16,0.031067961165048542,30.2859502,-97.7236068
681,800 BLOCK EAST RUNDBERG LANE,16,0.031067961165048542,30.3579348,-97.6874687
682,4000 E CESAR CHAVEZ ST,16,0.031067961165048542,30.2522691,-97.7029782
683,4100 SOUTH US HIGHWAY 183,16,0.031067961165048542,30.1913494,-97.6853765
684,6600 BLOCK SOUTH MOPAC EXPRESSWAY,16,0.031067961165048542,30.222432799999996,-97.83655959999999
685,11500 BLOCK SOUTH IH 35,16,0.031067961165048542,30.135298,-97.803239
686,6500 S MOPAC,16,0.031067961165048542,30.219232899999998,-97.8381723
687,2400 GUADALUPE ST,16,0.031067961165048542,30.2881238,-97.74170240000001
688,2900 BLOCK SOUTH IH 35,16,0.031067961165048542,30.227482399999996,-97.7453387
689,13600 N IH 35 SVRD,16,0.031067961165048542,,
690,4300 S CONGRESS,16,0.031067961165048542,30.220091600000003,-97.7677117
691,13700 RESEARCH BLVD,16,0.031067961165048542,30.4565494,-97.7927725
692,800 E WILLIAM CANNON,16,0.031067961165048542,30.19138299999999,-97.77175859999998
693,1200 BLOCK EAST DEAN KEETON,16,0.031067961165048542,30.2859502,-97.7236068
694,1000BL EAST DEAN KEETON STREET,16,0.031067961165048542,30.2884104,-97.73078350000002
695,12900 RESEARCH BLVD SB,16,0.031067961165048542,30.4134351,-97.6763078
696,7500 BLOCK NORTH MOPAC EXPRESSWAY,16,0.031067961165048542,30.3742785,-97.7297767
697,200 BLOCK EAST BRAKER LANE,16,0.031067961165048542,30.378714600000002,-97.6806054
698,1600 BLOCK WEST CESAR CHAVEZ STREET,16,0.031067961165048542,30.272139399999997,-97.7642191
699,4000 N MOPAC,16,0.031067961165048542,30.371707699999998,-97.7406695
700,13300 BLOCK RESEARCH BOULEVARD,16,0.031067961165048542,30.444624100000002,-97.78663900000001
701,12900 N US 183 HWY SB,16,0.031067961165048542,,
702,3900 BLOCK AIRPORT BOULEVARD,16,0.031067961165048542,30.289931,-97.707749
703,5900 BLOCK NORTH MOPAC EXPRESSWAY,16,0.031067961165048542,30.3742785,-97.7297767
704,300 W POWELL LN,16,0.031067961165048542,30.349187699999998,-97.7056881
705,13600 HWY 183 N,15,0.029126213592233014,30.4743675,-97.7804686
706,9000 S IH 35,15,0.029126213592233014,30.16653759999999,-97.787189
707,10000 BLOCK NORTH MOPAC EXPRESSWAY,15,0.029126213592233014,30.3742785,-97.7297767
708,9100 RESEARCH BLVD,15,0.029126213592233014,30.3739896,-97.72887550000002
709,1000 E. ANDERSON LANE,15,0.029126213592233014,30.337297999999997,-97.69468
710,2300 ENFIELD ROAD,15,0.029126213592233014,30.288095399999996,-97.7671057
711,5200 S IH 35,15,0.029126213592233014,30.203481099999998,-97.76054079999999
712,5900 S MOPAC,15,0.029126213592233014,30.219553100000002,-97.8363105
713,3600 PRESIDENTIAL BOULEVARD,15,0.029126213592233014,30.2021489,-97.666829
714,11000 N MOPAC EXPY,15,0.029126213592233014,30.400165100000002,-97.7324026
715,5000 BLOCK SOUTH MOPAC EXPRESSWAY,15,0.029126213592233014,30.2006941,-97.86698759999999
716,1700 CROSSING PL,15,0.029126213592233014,30.233774699999998,-97.7160551
717,11400 RESEARCH BLVD NB,15,0.029126213592233014,30.370976000000002,-97.72681700000001
718,7500 BLOCK EAST US HIGHWAY 290,15,0.029126213592233014,30.329896899999998,-97.6615018
719,400 BLOCK WEST BRAKER LANE,15,0.029126213592233014,30.3802135,-97.6834804
720,13800 N US 183 HWY SVRD SB,15,0.029126213592233014,,
721,13600 RESEARCH BLVD.,15,0.029126213592233014,30.453283000000003,-97.7927995
722,800 BLOCK BASTROP HIGHWAY,15,0.029126213592233014,30.232451300000005,-97.6841126
723,7500 E HWY 290 SVRD,15,0.029126213592233014,,
724,5900 N IH 35 SB,15,0.029126213592233014,,
725,2200 BLK ENFIELD,15,0.029126213592233014,30.2876756,-97.7661391
726,11900 RESEARCH BLVD,15,0.029126213592233014,30.42442,-97.75045909999999
727,13100 BLOCK NORTH US HIGHWAY 183,15,0.029126213592233014,30.002528100000003,-97.6859985
728,SOUTH 1ST STREET AT,15,0.029126213592233014,30.187022100000004,-97.7906389
729,3400 BLOCK EAST MARTIN LUTHER KING JUNIO,15,0.029126213592233014,30.283424,-97.7001839
730,7300 N MOPAC EXPY,15,0.029126213592233014,30.371707699999998,-97.7406695
731,BLOCK N IH 35,15,0.029126213592233014,30.3154622,-97.7051168
732,7300 E HWY 290,15,0.029126213592233014,30.230750699999998,-97.8793192
733,1500 S IH 35 NB,15,0.029126213592233014,30.27042,-97.74444
734,11200 N IH 35,15,0.029126213592233014,30.376154,-97.6771065
735,800 WINSTEAD,15,0.029126213592233014,30.2817653,-97.7679635
736,5000 BLOCK EAST WILLIAM CANNON DRIVE,15,0.029126213592233014,30.1807135,-97.7495122
737,13000 BLOCK RESEARCH BOULEVARD,15,0.029126213592233014,30.4384223,-97.7768956
738,300 BLOCK EAST BRAKER LANE,15,0.029126213592233014,30.378530100000003,-97.68016290000001
739,WEST 5TH STREET,15,0.029126213592233014,30.2718048,-97.7585407
740,10000 RESEARCH BLVD,15,0.029126213592233014,30.3932526,-97.7475174
741,1200 BLOCK NORTH IH 35,15,0.029126213592233014,30.2723033,-97.7334223
742,1800 W PARMER LN,15,0.029126213592233014,30.4144066,-97.6927743
743,100 E BRAKER LN,15,0.029126213592233014,30.379013300000004,-97.6813166
744,6500 S MOPAC EXPY,15,0.029126213592233014,30.219232899999998,-97.8381723
745,1500 BLOCK EAST RIVERSIDE DRIVE,15,0.029126213592233014,30.2467652,-97.73162109999998
746,5600 BLOCK EAST WILLIAM CANNON DRIVE,15,0.029126213592233014,30.176053399999997,-97.7436573
747,12700 S IH 35,15,0.029126213592233014,30.117013800000002,-97.8055725
748,9500 BLOCK RESEARCH BOULEVARD,15,0.029126213592233014,30.386287,-97.7445575
749,EAST 4TH STREET,14,0.027184466019417475,30.259796100000003,-97.7234017
750,600 MONTOPOLIS DR,14,0.027184466019417475,30.239074699999996,-97.6945522
751,4800 S CONGRESS,14,0.027184466019417475,30.213883799999998,-97.7700171
752,12900 RESEARCH BLVD,14,0.027184466019417475,30.43634149999999,-97.77288100000001
753,12000 RESEARCH BLVD,14,0.027184466019417475,30.424621600000002,-97.75143759999999
754,5800 N CAPITAL OF TEXAS,14,0.027184466019417475,30.3554483,-97.7935587
755,1800 W STASSNEY LANE,14,0.027184466019417475,30.2142276,-97.7950761
756,13300 RESEARCH BLVD.,14,0.027184466019417475,30.444624100000002,-97.78663900000001
757,NORTH I H 35,14,0.027184466019417475,30.342750399999996,-97.7037491
758,2200 SCOFIELD RIDGE,14,0.027184466019417475,30.4285602,-97.6907883
759,5100 N IH 35 NB,14,0.027184466019417475,,
760,4900 S 1ST STREET,14,0.027184466019417475,30.215093699999997,-97.7780554
761,3000 S IH 35,14,0.027184466019417475,30.227203000000003,-97.7461338
762,5800 N MOPAC EXPY NB,14,0.027184466019417475,30.326284,-97.739566
763,1700 BLOCK RUTLAND DRIVE,14,0.027184466019417475,30.3748478,-97.7115165
764,2000 S IH 35 NB,14,0.027184466019417475,30.27042,-97.74444
765,2400 BLOCK ENFIELD ROAD,14,0.027184466019417475,30.288974,-97.768633
766,50 N IH 35,14,0.027184466019417475,30.3043534,-97.7142088
767,12600 BLOCK SOUTH IH 35,14,0.027184466019417475,30.2410624,-97.7373993
768,7100 BLOCK 290 EAST SERVICE ROAD,14,0.027184466019417475,30.235615000000003,-97.8536471
769,13500 BLOCK SOUTH IH 35,14,0.027184466019417475,30.2410624,-97.7373993
770,3300 DUVAL ST,14,0.027184466019417475,30.296042600000003,-97.73199759999999
771,BLOCK NORTH I 35 EF,14,0.027184466019417475,30.3550115,-97.7594328
772,3500 N MOPAC EXPY,14,0.027184466019417475,30.333084000000003,-97.808205
773,5800 BLK MANCHACA,14,0.027184466019417475,30.2138494,-97.8005359
774,US HIGHWAY 183 SERVICE ROAD,14,0.027184466019417475,30.1771543,-97.6895571
775,11600 S IH35 SVRD,14,0.027184466019417475,,
776,BLOCK S 1ST,14,0.027184466019417475,30.2090538,-97.78050079999998
777,EAST 11TH STREET,14,0.027184466019417475,30.2687126,-97.7279638
778,3000 S US 183 HWY SB,14,0.027184466019417475,,
779,12100 BLOCK METRIC BOULEVARD,14,0.027184466019417475,30.4034718,-97.70026120000001
780,13100 N US 183 HWY SB,14,0.027184466019417475,,
781,13600 BLOCK SOUTH IH 35,14,0.027184466019417475,30.2410624,-97.7373993
782,13000 SOUTH I 35,14,0.027184466019417475,30.410918199999998,-97.67599940000001
783,13600 BLOCK US HIGHWAY 183,14,0.027184466019417475,30.4743675,-97.7804686
784,1100 S IH 35,14,0.027184466019417475,30.2471447,-97.736045
785,9700 ANDERSON MILL RD,14,0.027184466019417475,30.448727899999998,-97.7928749
786,1400 BLOCK WEST ANDERSON LANE,14,0.027184466019417475,30.3512891,-97.7197872
787,5000 BLOCK NORTH MOPAC EXPRESSWAY,14,0.027184466019417475,30.3742785,-97.7297767
788,800 E RUNDBERG LN,14,0.027184466019417475,30.3579348,-97.6874687
789,11900 N MOPAC NB,14,0.027184466019417475,,
790,2200 BLK SCOFIELD RIDGE PKWY,14,0.027184466019417475,30.4285602,-97.6907883
791,9200 RESEARCH BLVD,14,0.027184466019417475,30.375455199999998,-97.7321816
792,100 BLOCK WEST RUNDBERG LANE,14,0.027184466019417475,30.361743,-97.693405
793,1300 S IH 35 NB,14,0.027184466019417475,30.27042,-97.74444
794,8800 RESEARCH BLVD,14,0.027184466019417475,30.367007399999995,-97.719266
795,4500 BLOCK NORTH MOPAC EXPRESSWAY,14,0.027184466019417475,30.3742785,-97.7297767
796,1700 WILLOW CREEK,14,0.027184466019417475,30.23702819999999,-97.7268274
797,13600 AVERY RANCH,14,0.027184466019417475,30.4946165,-97.7884757
798,13900 N US 183 HWY SVRD NB,14,0.027184466019417475,,
799,4100 S US 183 HWY  NB,14,0.027184466019417475,30.5060468,-97.8203465
800,2300 BLOCK BARTON SPRINGS ROAD,14,0.027184466019417475,30.2678744,-97.772116
801,12000 BLOCK RESEARCH BOULEVARD,14,0.027184466019417475,30.424621600000002,-97.75143759999999
802,100 BLK E. BRAKER LN,14,0.027184466019417475,30.379013300000004,-97.6813166
803,2900 W BEN WHITE BLVD,14,0.027184466019417475,30.2332343,-97.7940782
804,WEST 45TH STREET,14,0.027184466019417475,30.3162044,-97.7433696
805,5200 BLOCK E RIVERSIDE DRIVE,13,0.02524271844660194,30.230431199999998,-97.7143482
806,2800 E MLK BLVD,13,0.02524271844660194,30.28119569999999,-97.7124426
807,12900 N IH 35,13,0.02524271844660194,30.413427399999996,-97.6763088
808,13500 N US 183 HWY SB,13,0.02524271844660194,,
809,7000 290 SVRD WB,13,0.02524271844660194,,
810,8700 BLOCK RESEARCH BOULEVARD,13,0.02524271844660194,30.364583399999997,-97.7195167
811,13500 N MOPAC EXPY,13,0.02524271844660194,30.371707699999998,-97.7406695
812,5800 E BEN WHITE BLVD SVRD EB,13,0.02524271844660194,,
813,7600 E BEN WHITE WB,13,0.02524271844660194,30.217121999999996,-97.7433205
814,7600 N MOPAC,13,0.02524271844660194,30.371707699999998,-97.7406695
815,13200 RESEARCH BLVD SB,13,0.02524271844660194,30.44159,-97.783822
816,10000 BLOCK RESEARCH BOULEVARD,13,0.02524271844660194,30.392312899999997,-97.7481459
817,5700 E BEN WHITE BLVD SVRD EB,13,0.02524271844660194,,
818,BLOCK N IH35 SVRD,13,0.02524271844660194,30.3154622,-97.7051168
819,900 W PARMER LANE,13,0.02524271844660194,30.4079603,-97.6786152
820,5700 JOHNNY MORRIS,13,0.02524271844660194,30.284588300000003,-97.6526999
821,13000 S IH 35 SB,13,0.02524271844660194,30.1594697,-97.7926701
822,4200 DAVIS LN,13,0.02524271844660194,30.1985377,-97.8517334
823,12500 BLOCK RESEARCH BOULEVARD,13,0.02524271844660194,30.428891600000004,-97.7595409
824,10000 S IH 35 NB,13,0.02524271844660194,30.27042,-97.74444
825,1800 BLOCK WILLOW CREEK DRIVE,13,0.02524271844660194,30.235412100000005,-97.7273727
826,700 BL E DEAN KEETON STREET,13,0.02524271844660194,30.289466700000002,-97.7313141
827,5200 BLOCK NORTH IH 35,13,0.02524271844660194,30.3113689,-97.7110314
828,13300 BLOCK SOUTH IH 35,13,0.02524271844660194,30.2410624,-97.7373993
829,S IH 35 SVRD,13,0.02524271844660194,30.1762518,-97.77842
830,7800 BLOCK NORTH LAMAR BOULEVARD,13,0.02524271844660194,30.3463255,-97.7145342
831,3500 MANCHACA RD,13,0.02524271844660194,30.238388899999997,-97.7829584
832,4000 S US 183 HWY  NB,13,0.02524271844660194,30.5060468,-97.8203465
833,4000 S US 1I83,13,0.02524271844660194,,
834,6000 S MOPAC,13,0.02524271844660194,30.227012199999997,-97.83189420000001
835,13400 RESEARCH BLVD,13,0.02524271844660194,30.4474376,-97.7894906
836,12500 RESEARCH BLVD SB,13,0.02524271844660194,,
837,LAKE AUSTIN ZONE 4,13,0.02524271844660194,,
838,BLOCK E 5TH ST,13,0.02524271844660194,30.259311199999996,-97.7190772
839,4000 SPICEWOOD SPRINGS RD,13,0.02524271844660194,30.367544,-97.7527983
840,8600 BLOCK NORTH MOPAC EXPRESSWAY,13,0.02524271844660194,30.3742785,-97.7297767
841,11300 BLOCK NORTH IH 35,13,0.02524271844660194,30.3777146,-97.6763672
842,11400 S IH 35 NB,13,0.02524271844660194,30.27559,-97.74257
843,6000 BLOCK NORTH IH 35,13,0.02524271844660194,30.3224537,-97.7074415
844,12000 N MOPAC NB,13,0.02524271844660194,,
845,8400 BLOCK SOUTH 1ST STREET,13,0.02524271844660194,30.1793479,-97.7961198
846,13800-13600 N IH 35 SVRD,13,0.02524271844660194,,
847,2200 BLOCK NORTH IH 35,13,0.02524271844660194,30.2832548,-97.7276411
848,400 BLOCK EAST 5TH STREET,13,0.02524271844660194,30.266141499999996,-97.739674
849,3200 BLOCK PRESIDENTIAL BOULEVARD,13,0.02524271844660194,30.202785100000003,-97.66684509999999
850,1400 BLOCK SOUTH IH 35,13,0.02524271844660194,30.24532289999999,-97.7353109
851,4400 BLOCK NORTH IH 35,13,0.02524271844660194,30.300895500000003,-97.7162047
852,11000 SOUTH I-35,13,0.02524271844660194,30.143978000000004,-97.79524740000001
853,7200 BLOCK NORTH MOPAC EXPRESSWAY,13,0.02524271844660194,30.354659899999998,-97.7486437
854,9200 BLOCK NORTH LAMAR BOULEVARD,13,0.02524271844660194,30.361165000000003,-97.69875390000001
855,1200 S IH 35,13,0.02524271844660194,30.2470661,-97.7355585
856,3200 LAKE AUSTIN BLVD,13,0.02524271844660194,30.285446000000004,-97.7784246
857,6200 N IH 35,13,0.02524271844660194,30.194692,-97.7676877
858,13700 N US 183 SB,13,0.02524271844660194,30.326842,-97.725899
859,2100 BLOCK EAST RIVERSIDE DRIVE,13,0.02524271844660194,30.240372600000004,-97.7263172
860,8100 N MOPAC SB,13,0.02524271844660194,,
861,8100 FM 2222 RD,13,0.02524271844660194,30.460939500000002,-97.75707990000001
862,14200 BLOCK NORTH IH 35,13,0.02524271844660194,30.4318915,-97.6711939
863,2000 N MOPAC EXPY,13,0.02524271844660194,30.3742785,-97.7297767
864,1000 BLOCK ED BLUESTEIN BOULVARD,13,0.02524271844660194,30.252851,-97.6817594
865,4900 S IH 35 SVCRD,13,0.02524271844660194,30.1687083,-97.7854188
866,2000 BLOCK SOUTH LAMAR BOULEVARD,13,0.02524271844660194,30.249392200000003,-97.76751540000001
867,2000 BLOCK NORTH MOPAC EXPRESSWAY,13,0.02524271844660194,30.3742785,-97.7297767
868,2000 BLOCK EAST RIVERSIDE DRIVE,13,0.02524271844660194,30.2411281,-97.7269816
869,800 W 6TH,13,0.02524271844660194,30.2710244,-97.7506538
870,7400 E BEN WHITE EB,13,0.02524271844660194,30.2214658,-97.7567376
871,9600 RESEARCH BLVD,13,0.02524271844660194,30.3874152,-97.7444215
872,13700 RESEARCH BLVD SB,13,0.02524271844660194,30.412024900000002,-97.7466944
873,7500 N IH 35,13,0.02524271844660194,30.182710600000004,-97.7773436
874,N IH 35,13,0.02524271844660194,30.342750399999996,-97.7037491
875,11000 BLOCK RESEARCH BOULEVARD,13,0.02524271844660194,30.403239000000003,-97.7460184
876,1000 S IH 35 NB,13,0.02524271844660194,30.27042,-97.74444
877,E HWY 71,13,0.02524271844660194,30.21376309999999,-97.66030079999999
878,3100 BLOCK SOUTH HIGHWAY 183,12,0.02330097087378641,30.204899400000002,-97.6839578
879,WEST 30TH STREET,12,0.02330097087378641,30.298698100000003,-97.7462325
880,NORTH US HIGHWAY 183 SERVICE ROAD,12,0.02330097087378641,,
881,4000 BLOCK AIRPORT,12,0.02330097087378641,30.291544000000002,-97.707656
882,1400 ED BLUESTIEN,12,0.02330097087378641,30.256834899999998,-97.6770368
883,1800 EAST RIVERSIDE DRIVE,12,0.02330097087378641,30.243439000000002,-97.72937320000001
884,1600 BLOCK EAST OLTORF STREET,12,0.02330097087378641,30.2340225,-97.7395537
885,7800 S 1ST ST,12,0.02330097087378641,30.185246999999997,-97.792145
886,3000 S IH 35 NB,12,0.02330097087378641,30.27042,-97.74444
887,10000 MANCHACA RD,12,0.02330097087378641,30.1718684,-97.8244191
888,2600 MLK BLVD,12,0.02330097087378641,30.281564000000003,-97.714005
889,3900 S CONGRESS,12,0.02330097087378641,30.224295,-97.76357840000001
890,3500 BLOCK MANCHACA ROAD,12,0.02330097087378641,30.238388899999997,-97.7829584
891,8500 ANDERSON MILL,12,0.02330097087378641,30.456940999999997,-97.7647939
892,6600 BLOCK SOUTH IH 35,12,0.02330097087378641,30.190721000000003,-97.7708449
893,200 BLK W. BRAKER LN,12,0.02330097087378641,30.3792696,-97.68186440000001
894,5500 S IH 35,12,0.02330097087378641,30.202151,-97.764748
895,1700 RUTLAND DR,12,0.02330097087378641,30.3748478,-97.7115165
896,10800 FOUR IRON,12,0.02330097087378641,30.4316544,-97.77829840000001
897,8200 S 1ST ST,12,0.02330097087378641,30.1814912,-97.7949176
898,6500 N IH 35,12,0.02330097087378641,30.324920600000002,-97.70712409999999
899,500 BLOCK EAST 7TH STREET,12,0.02330097087378641,30.2678696,-97.73750940000001
900,4200 BLOCK SOUTH CONGRESS AVENUE,12,0.02330097087378641,30.2213125,-97.76491850000001
901,3200 BLOCK SOUTH HIGHWAY 183,12,0.02330097087378641,30.202627000000003,-97.6841593
902,4500 S MOPAC,12,0.02330097087378641,30.2273141,-97.8310812
903,11200 S IH 35 EF,12,0.02330097087378641,,
904,12TH STREET,12,0.02330097087378641,30.275075199999996,-97.7116139
905,2600 MLK,12,0.02330097087378641,30.281564000000003,-97.714005
906,1200 BLOCK SOUTH IH 35,12,0.02330097087378641,30.2470661,-97.7355585
907,8200 BLOCK SOUTH 1ST STREET,12,0.02330097087378641,30.1814912,-97.7949176
908,6200 N CAPITAL OF TX HWY,12,0.02330097087378641,30.361145299999997,-97.7906995
909,10500 BLOCK NORTH MOPAC EXPRESSWAY,12,0.02330097087378641,30.3742785,-97.7297767
910,700 BLOCK DEAN KEETON,12,0.02330097087378641,30.289466700000002,-97.7313141
911,5400 WESTGATE BLVD,12,0.02330097087378641,30.221857500000002,-97.80631600000001
912,11400 S IH 35,12,0.02330097087378641,30.1366494,-97.79787
913,1900 BLOCK NORTH IH 35,12,0.02330097087378641,30.2786261,-97.7304703
914,10000 S IH 35,12,0.02330097087378641,30.1572846,-97.7906944
915,13000 N I 35 SVRD,12,0.02330097087378641,30.415734999999998,-97.675538
916,2100 BLOCK BARTON SPRINGS ROAD,12,0.02330097087378641,30.2660703,-97.7691348
917,700 BLOCK EAST DEAN KEATON STREET,12,0.02330097087378641,30.289466700000002,-97.7313141
918,4600 S PLEASANT VALLEY,12,0.02330097087378641,30.2176918,-97.7326745
919,3900 BLOCK SPICEWOOD SPRINGS ROAD,12,0.02330097087378641,30.366750699999997,-97.7504736
920,13000 SH 45,12,0.02330097087378641,30.474834899999998,-97.7724246
921,1000 BLOCK SOUTH IH 35,12,0.02330097087378641,30.248320899999996,-97.73580950000002
922,9800 N LAMAR BLVD,12,0.02330097087378641,30.367423300000002,-97.6945565
923,8100 N MOPAC,12,0.02330097087378641,30.365533600000003,-97.7448106
924,7300 BLOCK EAST US HIGHWAY 290,12,0.02330097087378641,30.232907399999995,-97.7975128
925,BLOCK 5TH IH 35 SVRD,12,0.02330097087378641,,
926,11200 HARRIS BRANCH PKWY,12,0.02330097087378641,30.3464289,-97.6144913
927,1800 E RIVERSIDE DRIVE,12,0.02330097087378641,30.243439000000002,-97.72937320000001
928,11900 S IH 35,12,0.02330097087378641,30.125722399999997,-97.8021225
929,4000 S IH 35 NB,12,0.02330097087378641,30.27042,-97.74444
930,600 E. DEAN KEETON ST,12,0.02330097087378641,30.289525399999995,-97.7319265
931,7000 BLOCK NORTH IH 35,12,0.02330097087378641,30.331684999999997,-97.7055041
932,14600 AVERY RANCH BLVD,12,0.02330097087378641,30.4967148,-97.780102
933,7800 BLOCK NORTH IH 35 SERVICE ROAD,12,0.02330097087378641,30.340313599999998,-97.70041440000001
934,4000 BLOCK NORTH MOPAC EXPRESSWAY,12,0.02330097087378641,30.3742785,-97.7297767
935,6000 S IH 35,12,0.02330097087378641,30.1969727,-97.7661871
936,9600 N LAMAR BLVD,12,0.02330097087378641,30.365660100000003,-97.6959372
937,8500 FOUR IRON,12,0.02330097087378641,30.4316544,-97.77829840000001
938,4800 S IH 35 SB,12,0.02330097087378641,30.267751,-97.746857
939,4800 S CONGRESS AVE,12,0.02330097087378641,30.213883799999998,-97.7700171
940,10700 N MOPAC EXPY,12,0.02330097087378641,30.371707699999998,-97.7406695
941,13300 N 183,12,0.02330097087378641,30.4743675,-97.7804686
942,1600 BLOCK NORTH IH35 SERVICE ROAD,12,0.02330097087378641,30.2760279,-97.7314063
943,100 BLOCK NORTH IH 35,12,0.02330097087378641,30.2617781,-97.73723290000001
944,1800 S IH 35,12,0.02330097087378641,30.240874100000003,-97.7386823
945,13800 TO 13600 BLOCK NORTH IH 35 SERVICE,12,0.02330097087378641,,
946,3800 BLOCK MANCHACA ROAD,12,0.02330097087378641,30.235596100000002,-97.7846418
947,11000 S IH 35,12,0.02330097087378641,30.143978000000004,-97.79524740000001
948,2400 ENFIELD,12,0.02330097087378641,30.288974,-97.768633
949,4TH STREET,12,0.02330097087378641,30.259796100000003,-97.7234017
950,2ND STREET,12,0.02330097087378641,30.265508899999997,-97.7471691
951,7100 BLOCK HIGHWAY 290,12,0.02330097087378641,30.3260512,-97.6714359
952,12200 BLK S IH 35,12,0.02330097087378641,30.39518219999999,-97.6724432
953,8600 BLOCK NORTH IH 35,12,0.02330097087378641,30.3497432,-97.6937546
954,7000 BLOCK SOUTH IH 35,12,0.02330097087378641,30.1865511,-97.77368050000001
955,13800 BLOCK NORTH US HIGHWAY 183,12,0.02330097087378641,30.002528100000003,-97.6859985
956,11500 BLOCK RESEARCH BOULEVARD,12,0.02330097087378641,30.4122255,-97.74662590000001
957,5000 S MOPAC EXPY,12,0.02330097087378641,30.2006941,-97.86698759999999
958,BLOCK W 6TH ST,12,0.02330097087378641,30.273019899999998,-97.7579551
959,5500 BLOCK NORTH IH 35,12,0.02330097087378641,30.314807000000002,-97.7085933
960,6000 N MOPAC EXPY NB,12,0.02330097087378641,,
961,7900 BLOCK NORTH MOPAC EXPRESSWAY,12,0.02330097087378641,30.3742785,-97.7297767
962,800 BLOCK WEST 6TH STREET,12,0.02330097087378641,30.2709674,-97.7504376
963,11200 S IH35,12,0.02330097087378641,30.139497600000002,-97.797284
964,10500 N MOPAC EXPY,12,0.02330097087378641,30.371707699999998,-97.7406695
965,13700 BLOCK US HIGHWAY 183,12,0.02330097087378641,30.4764771,-97.7820873
966,13700 BLOCK RESEARCH BOULEVARD,12,0.02330097087378641,30.4565494,-97.7927725
967,1700 W STASSNEY,12,0.02330097087378641,30.213568199999997,-97.7937058
968,9300 RESEARCH BLVD,12,0.02330097087378641,30.3831779,-97.7374667
969,5900 N MOPAC,12,0.02330097087378641,30.371707699999998,-97.7406695
970,13300 BLOCK NORTH US HIGHWAY 183,12,0.02330097087378641,30.002528100000003,-97.6859985
971,6600 E BEN WHITE BLVD SVRD EB,12,0.02330097087378641,,
972,7000 BLOCK US HIGHWAY 290 SERVICE ROAD,11,0.021359223300970873,30.235615000000003,-97.8536471
973,FM 2222,11,0.021359223300970873,30.41768799999999,-97.6991515
974,9300 N LAMAR BLVD,11,0.021359223300970873,30.36216839999999,-97.6986145
975,4100 DEER LN,11,0.021359223300970873,30.19561079999999,-97.8457385
976,500 BLOCK EAST WILLIAM CANNON DRIVE,11,0.021359223300970873,30.192448300000002,-97.77504640000001
977,12700 RESEARCH BLVD,11,0.021359223300970873,30.431445,-97.7656627
978,9300 MANCHACA RD,11,0.021359223300970873,30.179897999999998,-97.82011740000002
979,3500 E  MLK,11,0.021359223300970873,30.283439899999998,-97.6981248
980,1000 S MOPAC EXPY NB,11,0.021359223300970873,30.202145,-97.775515
981,5800 BLOCK MANCHACA ROAD,11,0.021359223300970873,30.2138494,-97.8005359
982,700 BL E DEAN KEETON,11,0.021359223300970873,30.289466700000002,-97.7313141
983,BLOCK 5TH,11,0.021359223300970873,30.2873021,-97.7423997
984,12800 BLOCK NORTH US HIGHWAY 183,11,0.021359223300970873,30.002528100000003,-97.6859985
985,11500 RESEARCH BLVD,11,0.021359223300970873,30.4122255,-97.74662590000001
986,8100 N MOPAC EXPY SB,11,0.021359223300970873,30.203384000000003,-97.77543399999999
987,NORTH IH-35 SERVICE ROAD,11,0.021359223300970873,30.3005675,-97.7152308
988,5000 S CONGRESS AVE,11,0.021359223300970873,30.2119685,-97.7716496
989,5000 PARMER,11,0.021359223300970873,30.430894300000002,-97.7254845
990,200 S CONGRESS,11,0.021359223300970873,30.2597469,-97.74617940000002
991,9300 BLOCK RESEARCH BOULEVARD,11,0.021359223300970873,30.3831779,-97.7374667
992,9300 BLOCK NORTH LAMAR BOULEVARD,11,0.021359223300970873,30.36216839999999,-97.6986145
993,200 W BRAKER LN,11,0.021359223300970873,30.3792696,-97.68186440000001
994,500 BLOCK EAST 6TH STREET,11,0.021359223300970873,30.2669439,-97.7380412
995,2700 BLOCK EAST 7TH STREET,11,0.021359223300970873,30.2605174,-97.7113094
996,4500 N MOPAC EXPY SB,11,0.021359223300970873,,
997,8900 RESEARCH BLVD NB SVRD,11,0.021359223300970873,,
998,400 BLOCK WEST SLAUGHTER LANE,11,0.021359223300970873,30.1705327,-97.7967443
999,1600 E OLTORF ST,11,0.021359223300970873,30.2340225,-97.7395537
1000,1500 BLOCK EAST ANDERSON LANE,11,0.021359223300970873,30.3328679,-97.6862533
1001,100 E SLAUGHTER LN,11,0.021359223300970873,30.1675706,-97.7840767
1002,2300 S IH 35 NB,11,0.021359223300970873,30.27042,-97.74444
1003,2000 S IH 35 SB,11,0.021359223300970873,30.1594697,-97.7926701
1004,1000 BLOCK EAST ANDERSON LANE,11,0.021359223300970873,30.337297999999997,-97.69468
1005,7300 N IH 35 NB,11,0.021359223300970873,30.40497379999999,-97.854436
1006,1500 N IH 35,11,0.021359223300970873,30.495547700000003,-97.6805824
1007,8000 N MOPAC BLVD,11,0.021359223300970873,30.371707699999998,-97.7406695
1008,10500 N MOPAC,11,0.021359223300970873,30.371707699999998,-97.7406695
1009,14800 AVERY RANCH BLVD,11,0.021359223300970873,30.497245,-97.7783623
1010,3800 BLOCK PRESIDENTIAL BOULEVARD,11,0.021359223300970873,30.2027908,-97.6665583
1011,4600 E CESAR CHAVEZ ST,11,0.021359223300970873,30.25206249999999,-97.703694
1012,12800 RESEARCH BLVD,11,0.021359223300970873,30.434532300000004,-97.7691783
1013,6000 N MOPAC BLVD,11,0.021359223300970873,30.227012199999997,-97.83189420000001
1014,10100 BLOCK NORTH MOPAC EXPRESSWAY,11,0.021359223300970873,30.3742785,-97.7297767
1015,1500 W BEN WHITE BLVD,11,0.021359223300970873,30.228703499999998,-97.7822123
1016,100 W SLAUGHTER LN,11,0.021359223300970873,30.16712159999999,-97.786861
1017,EAST 2ND STREET,11,0.021359223300970873,30.25853889999999,-97.7257343
1018,2100 BLOCK NORTH IH 35,11,0.021359223300970873,30.2808977,-97.7294716
1019,4200 S CONGRESS,11,0.021359223300970873,26.6118326,-80.0871804
1020,2400 BLOCK BARTON SPRINGS ROAD,11,0.021359223300970873,30.2678744,-97.772116
1021,9100 BLOCK RESEARCH BOULEVARD,11,0.021359223300970873,30.3739896,-97.72887550000002
1022,1900 ED BLUESTEIN BLVD,11,0.021359223300970873,30.259364299999998,-97.675497
1023,400 W STASSNEY,11,0.021359223300970873,30.2073288,-97.7787838
1024,400 BLOCK BASTROP HIGHWAY,11,0.021359223300970873,30.2396903,-97.6883
1025,9100 N MOPAC,11,0.021359223300970873,30.371707699999998,-97.7406695
1026,8700 BLOCK BRODIE LANE,11,0.021359223300970873,30.19721299999999,-97.841282
1027,4000 AIRPORT,11,0.021359223300970873,30.291544000000002,-97.707656
1028,4400 BLOCK AIRPORT BOULEVARD,11,0.021359223300970873,30.3003609,-97.7129214
1029,3RD STREET,11,0.021359223300970873,30.210199300000003,-97.66863670000001
1030,4700 BLOCK EAST RIVERSIDE DRIVE,11,0.021359223300970873,30.233125,-97.718251
1031,24TH STREET,11,0.021359223300970873,30.288124,-97.7473034
1032,11600 S IH 35 NB,11,0.021359223300970873,30.27559,-97.74257
1033,3400 BLOCK PRESIDENTIAL BOULEVARD,11,0.021359223300970873,30.202785100000003,-97.66684509999999
1034,I H 35,11,0.021359223300970873,30.2649227,-97.735013
1035,6300 S IH 35 NB,11,0.021359223300970873,30.27042,-97.74444
1036,1100 BLOCK NORTH IH 35,11,0.021359223300970873,30.27235659999999,-97.73276329999999
1037,7100 E. US HWY 290 SVRD,11,0.021359223300970873,30.322781199999998,-97.6825918
1038,11000 RESEARCH BLVD,11,0.021359223300970873,30.403239000000003,-97.7460184
1039,9000 BRODIE,11,0.021359223300970873,30.194284399999997,-97.8430608
1040,11700 S IH 35,11,0.021359223300970873,30.13582529999999,-97.7981988
1041,100 W OLTORF,11,0.021359223300970873,30.2388347,-97.7536251
1042,3400 E MARTIN LUTHER KING JR,11,0.021359223300970873,30.283424,-97.7001839
1043,9000 N. MO PAC NB,11,0.021359223300970873,,
1044,3000 N MOPAC EXPY NB,11,0.021359223300970873,,
1045,3000 GUADALUPE ST,11,0.021359223300970873,30.2972168,-97.7423979
1046,1100 WEST 6TH,11,0.021359223300970873,30.2724062,-97.7549578
1047,9900 MANCHACA RD,11,0.021359223300970873,30.173274699999997,-97.8239657
1048,100 BLOCK NORTH IH 35 SERVICE ROAD,11,0.021359223300970873,30.2620218,-97.7371449
1049,100 W BRAKER LN,11,0.021359223300970873,30.379017100000002,-97.6813251
1050,4300 BLOCK S 1ST ST,11,0.021359223300970873,30.222945000000003,-97.772082
1051,8600 BLOCK NORTH LAMAR BOULEVARD,11,0.021359223300970873,30.3546103,-97.7046928
1052,12200 BLOCK NORTH IH 35,11,0.021359223300970873,30.39518219999999,-97.6724432
1053,5200 BLOCK MANCHACA ROAD,11,0.021359223300970873,30.219994800000002,-97.7944984
1054,1000 HOLLY ST,11,0.021359223300970873,30.2570108,-97.7362316
1055,9000 BRODIE LN,11,0.021359223300970873,30.194284399999997,-97.8430608
1056,3500 N MOPAC EXPY SB,11,0.021359223300970873,,
1057,13600 RESEARCH BLVD NB,11,0.021359223300970873,30.370976000000002,-97.72681700000001
1058,2500 BLOCK E RIVERSIDE DR,11,0.021359223300970873,30.2354798,-97.7235459
1059,100 BLOCK WEST BEN WHITE BOULEVARD,11,0.021359223300970873,30.2236304,-97.763915
1060,8500 BLOCK NORTH MOPAC EXPRESSWAY,11,0.021359223300970873,30.3727147,-97.7416291
1061,300 W BRAKER LN,11,0.021359223300970873,30.3797332,-97.6827064
1062,7200 N IH 35,11,0.021359223300970873,30.1846277,-97.7749468
1063,200 E. BRAKER LN,11,0.021359223300970873,30.378714600000002,-97.6806054
1064,4000 BLOCK SOUTH IH 35,11,0.021359223300970873,30.2186798,-97.7532241
1065,8800 BLOCK BURNET ROAD,11,0.021359223300970873,30.371236800000002,-97.7277635
1066,WEST 38TH STREET,11,0.021359223300970873,30.3058678,-97.7445794
1067,11000 BLOCK SOUTH IH 35,11,0.021359223300970873,30.143978000000004,-97.79524740000001
1068,300 W BRAKER,11,0.021359223300970873,30.3797332,-97.6827064
1069,11600 S IH35,11,0.021359223300970873,30.1360958,-97.7980755
1070,900 W BEN WHITE BLVD,11,0.021359223300970873,30.227970199999998,-97.7718518
1071,11100 N IH 35,11,0.021359223300970873,30.3747484,-97.6782638
1072,3000 S IH 35 SB,11,0.021359223300970873,30.271057,-97.745655
1073,10600 N MOPAC EXPY,11,0.021359223300970873,30.371707699999998,-97.7406695
1074,BLOCK W 24TH ST,11,0.021359223300970873,30.288124,-97.7473034
1075,5000 BLK W US 290 EB,11,0.021359223300970873,30.2884958,-97.6647673
1076,13500 S IH 35 SB,11,0.021359223300970873,30.1594697,-97.7926701
1077,5000 N MOPAC EXPY,11,0.021359223300970873,30.371707699999998,-97.7406695
1078,4800 BLOCK RED RIVER STREET,11,0.021359223300970873,30.3085433,-97.7172214
1079,13100 RESEARCH BLVD SVRD,11,0.021359223300970873,30.4409061,-97.7799269
1080,2500 BLOCK STECK AVENUE,11,0.021359223300970873,30.362481199999998,-97.73022590000001
1081,12200 BLOCK NORTH US HIGHWAY 183,10,0.019417475728155338,30.002528100000003,-97.6859985
1082,11000 N IH35 SVC,10,0.019417475728155338,30.3741223,-97.67834570000001
1083,4600 N IH 35,10,0.019417475728155338,30.304706,-97.714149
1084,4900 BLOCK NORTH IH 35,10,0.019417475728155338,30.30786029999999,-97.7122663
1085,9600 BLOCK NORTH LAMAR BOULEVARD,10,0.019417475728155338,30.3655087,-97.695638
1086,BLOCK N. IH-35 SVRD,10,0.019417475728155338,30.3154622,-97.7051168
1087,BLOCK FM 2222,10,0.019417475728155338,30.41768799999999,-97.6991515
1088,12500 N IH 35,10,0.019417475728155338,30.4055597,-97.6759993
1089,11500 N IH 35 SVC,10,0.019417475728155338,30.380354999999998,-97.6752476
1090,5300 N IH 35 NB,10,0.019417475728155338,,
1091,5700 N MOPAC,10,0.019417475728155338,30.228018100000003,-97.83130940000001
1092,9500 N MOPAC,10,0.019417475728155338,30.371707699999998,-97.7406695
1093,4400 FM 2222,10,0.019417475728155338,30.41768799999999,-97.6991515
1094,1200 E ANDERSON,10,0.019417475728155338,30.335491700000002,-97.6899317
1095,12000 N MOPAC EXPY NB,10,0.019417475728155338,30.326284,-97.739566
1096,9000 N MOPAC EXPY SB,10,0.019417475728155338,,
1097,9000 N IH 35 NB,10,0.019417475728155338,29.800394899999997,-98.01642729999999
1098,9700 BURNET RD,10,0.019417475728155338,30.381175,-97.7240933
1099,9000 BLOCK RESEARCH BOULEVARD SERVICE RO,10,0.019417475728155338,30.3735983,-97.7250664
1100,11100 BLOCK NORTH IH 35,10,0.019417475728155338,30.374875899999996,-97.6779805
1101,BLOCK S IH 35 SVRD,10,0.019417475728155338,30.165836,-97.79277320000001
1102,5400 S IH 35,10,0.019417475728155338,30.2018788,-97.7624626
1103,1200 W 6TH ST,10,0.019417475728155338,30.2729962,-97.7571812
1104,12500 S IH35,10,0.019417475728155338,30.40531889999999,-97.67608890000001
1105,1100 BLOCK WEST 6TH STREET,10,0.019417475728155338,30.2723577,-97.7549942
1106,BLOCK E 7TH ST,10,0.019417475728155338,30.2614402,-97.7172262
1107,10600 METRIC BLVD,10,0.019417475728155338,30.385052,-97.7126596
1108,11700 N MOPAC EXPY,10,0.019417475728155338,30.371707699999998,-97.7406695
1109,5700 E WILLIAM CANNON DR,10,0.019417475728155338,30.17515,-97.7429753
1110,4400 BLOCK MANCHACA ROAD,10,0.019417475728155338,30.229545,-97.788954
1111,11700 RESEARCH BLVD,10,0.019417475728155338,30.419025800000004,-97.7473069
1112,9200 ANDERSON MILL RD,10,0.019417475728155338,30.450537199999996,-97.7847905
1113,11500 METRIC,10,0.019417475728155338,30.3949239,-97.7086573
1114,5300 BLOCK CAMERON ROAD,10,0.019417475728155338,30.311032300000004,-97.707724
1115,5300 CAMERON RD,10,0.019417475728155338,30.311032300000004,-97.707724
1116,9100 N MOPAC EXPY NB,10,0.019417475728155338,30.27042,-97.74444
1117,1200 BLOCK WEST SLAUGHTER LANE,10,0.019417475728155338,30.174254700000002,-97.8130222
1118,10500 S IH 35 NB,10,0.019417475728155338,30.27042,-97.74444
1119,5600 S MOPAC EXPY NB,10,0.019417475728155338,30.27042,-97.74444
1120,9700 BLOCK RESEARCH BOULEVARD,10,0.019417475728155338,30.38974289999999,-97.7460266
1121,11200 BLOCK SOUTH IH 35,10,0.019417475728155338,30.139497600000002,-97.797284
1122,11900 BLOCK RESEARCH BOULEVARD,10,0.019417475728155338,30.42442,-97.75045909999999
1123,5700 E WILLIAM CANNON,10,0.019417475728155338,30.17515,-97.7429753
1124,9000 BLOCK RESEARCH BOULEVARD SERVICE,10,0.019417475728155338,30.3684999,-97.72076159999999
1125,9500 N IH 35,10,0.019417475728155338,30.165877000000002,-97.7928005
1126,1200 BLOCK DEAN KEETON AVENUE,10,0.019417475728155338,30.2859502,-97.7236068
1127,13500 BLOCK NORTH MOPAC EXPRESSWAY,10,0.019417475728155338,30.3742785,-97.7297767
1128,7300 N IH 35,10,0.019417475728155338,30.3343455,-97.7039176
1129,7000 S MOPAC,10,0.019417475728155338,30.353453000000002,-97.7494951
1130,1800 BLOCK SOUTH IH 35,10,0.019417475728155338,30.240874100000003,-97.7386823
1131,LAKE AUSTIN ZONE 6,10,0.019417475728155338,30.3272957,-97.92593470000001
1132,7200 BLOCK HIGHWAY 290 EAST,10,0.019417475728155338,30.230771899999997,-97.8792834
1133,1800 BLOCK EAST STASSNEY LANE,10,0.019417475728155338,30.1979,-97.761425
1134,3600 BLOCK MANCHACA ROAD,10,0.019417475728155338,30.237554600000003,-97.7836917
1135,7900 BLK WEST GATE BLVD,10,0.019417475728155338,30.19942319999999,-97.8241976
1136,7100 E 290 WB SVRD,10,0.019417475728155338,,
1137,7100 BLOCK US HIGHWAY 290 EAST SERVICE,10,0.019417475728155338,30.232907399999995,-97.7975128
1138,7100 BLOCK U S HIGHWAY 290 EAST,10,0.019417475728155338,30.232989399999997,-97.87566899999999
1139,13400 BLOCK RESEARCH BOULEVARD,10,0.019417475728155338,30.4474376,-97.7894906
1140,13400 BLOCK NORTH US HIGHWAY 183,10,0.019417475728155338,30.002528100000003,-97.6859985
1141,400 TILLERY ST,10,0.019417475728155338,30.254065,-97.7076766
1142,13500 N US 183,10,0.019417475728155338,30.2480512,-97.6907829
1143,2300 E RIVERSIDE DR,10,0.019417475728155338,30.238213199999997,-97.7252677
1144,100 W BEN WHITE BLVD,10,0.019417475728155338,30.2236304,-97.763915
1145,7900 BLOCK SOUTH IH 35,10,0.019417475728155338,30.178094599999998,-97.7793085
1146,5900 N MOPAC EXPY SB,10,0.019417475728155338,,
1147,1700 W PARMER LN,10,0.019417475728155338,30.4132414,-97.6880342
1148,1400 W. ANDERSON LANE,10,0.019417475728155338,30.351257699999998,-97.7198091
1149,8600 SPICEWOOD SPRINGS RD,10,0.019417475728155338,30.434188,-97.776754
1150,3900 FAR WEST BLVD,10,0.019417475728155338,30.3573088,-97.7605982
1151,10000 BLOCK NORTH IH 35,10,0.019417475728155338,30.364706199999997,-97.68432440000001
1152,8700 BLOCK ANDERSON MILL ROAD,10,0.019417475728155338,30.455106699999998,-97.7703916
1153,13200 RESEARCH BLVD SVRD,10,0.019417475728155338,30.44159,-97.783822
1154,6300 N IH 35,10,0.019417475728155338,30.193454499999998,-97.7695475
1155,2000 W WILLIAM CANNON DR,10,0.019417475728155338,30.20295359999999,-97.8068765
1156,8700 MANCHACA RD,10,0.019417475728155338,30.18516889999999,-97.8175477
1157,1900 BLOCK SOUTH IH 35,10,0.019417475728155338,30.238935700000003,-97.7388947
1158,400 BLOCK EAST 6TH STREET,10,0.019417475728155338,30.267282399999996,-97.7390989
1159,13800 RESEARCH BLVD,10,0.019417475728155338,30.4629679,-97.7953463
1160,1000 EAST DEAN KEATON STREET,10,0.019417475728155338,30.287138,-97.7263251
1161,3400 BLOCK NORTH IH 35,10,0.019417475728155338,30.291653999999998,-97.72227300000002
1162,SOUTH IH 35 SERVICE ROAD AND,10,0.019417475728155338,30.1373595,-97.7976178
1163,13900 BLOCK NORTH US HIGHWAY 183,10,0.019417475728155338,30.002528100000003,-97.6859985
1164,7600 BLOCK CAMERON ROAD,10,0.019417475728155338,30.331097200000002,-97.687962
1165,7400 N MOPAC EXPY,10,0.019417475728155338,30.371707699999998,-97.7406695
1166,8300 MANCHACA,10,0.019417475728155338,30.18919649999999,-97.8142017
1167,7400 N MOPAC,10,0.019417475728155338,30.371707699999998,-97.7406695
1168,13700 N US 183 HWY SVRD NB,10,0.019417475728155338,,
1169,600 BLOCK EAST WILLIAM CANNON DRIVE,10,0.019417475728155338,30.1919624,-97.7730569
1170,2000 W WILLIAM CANNON,10,0.019417475728155338,30.20295359999999,-97.8068765
1171,2000 BLOCK NORTH IH 35,10,0.019417475728155338,30.27961449999999,-97.7300749
1172,3300 S IH 35 SB,10,0.019417475728155338,30.1594697,-97.7926701
1173,3500 N MOPAC NB,10,0.019417475728155338,30.333084000000003,-97.808205
1174,8500 BLOCK RESEARCH BOULEVARD,10,0.019417475728155338,30.359004499999998,-97.7172095
1175,400 BLOCK WEST STASSNEY LANE,10,0.019417475728155338,30.2075166,-97.7786707
1176,2000 ED BLUESTEIN BLVD SB,10,0.019417475728155338,30.312068,-97.66475600000001
1177,1400 BLK W STASSNEY LN,10,0.019417475728155338,30.212156300000004,-97.79069390000001
1178,1000 SPRINGDALE RD,10,0.019417475728155338,30.265570399999998,-97.6955186
1179,2000 MANOR RD,10,0.019417475728155338,30.284075599999998,-97.72041309999999
1180,600 BLOCK MONTOPOLIS DRIVE,10,0.019417475728155338,30.239074699999996,-97.6945522
1181,1500 BLOCK SOUTH IH 35,10,0.019417475728155338,30.243059999999996,-97.736055
1182,13200 N IH 35,10,0.019417475728155338,30.4179392,-97.6729276
1183,6500 BLOCK SOUTH MOPAC EXPRESSWAY,10,0.019417475728155338,30.219232899999998,-97.8381723
1184,13200 BLOCK NORTH IH 35,10,0.019417475728155338,30.4179392,-97.6729276
1185,300 W RUNDBERG LN,10,0.019417475728155338,30.362419300000003,-97.6945414
1186,100 BLK S. 1ST ST,10,0.019417475728155338,30.262196000000003,-97.7482379
1187,2500 E RIVERSIDE DRIVE,10,0.019417475728155338,30.2354798,-97.7235459
1188,8800 BURNET,10,0.019417475728155338,30.370612400000002,-97.7275927
1189,2500 N MOPAC,10,0.019417475728155338,30.4218842,-97.7016651
1190,2500 S IH 35 SB,10,0.019417475728155338,30.267751,-97.746857
1191,100 W RUNDBERG LN,10,0.019417475728155338,30.361743,-97.693405
1192,8800 N LAMAR,10,0.019417475728155338,30.3571184,-97.7012859
1193,2600 BLOCK EAST MARTIN LUTHER KING,10,0.019417475728155338,30.281564000000003,-97.714005
1194,6600 BLOCK EAST US HIGHWAY 290,10,0.019417475728155338,30.232907399999995,-97.7975128
1195,16200 AVERY RANCH BLVD,10,0.019417475728155338,30.504527000000003,-97.752023
1196,8900 N LAMAR BLVD,10,0.019417475728155338,30.358287400000002,-97.700424
1197,14500 BLOCK NORTH IH 35,10,0.019417475728155338,30.4341887,-97.6699933
1198,EAST US HIGHWAY 290 SERVICE ROAD,10,0.019417475728155338,30.232907399999995,-97.7975128
1199,2600 GUADALUPE ST,10,0.019417475728155338,30.29066559999999,-97.7416163
1200,8000 N MOPAC EXPY SB,10,0.019417475728155338,,
1201,8000 N IH 35 SB,10,0.019417475728155338,,
1202,8950 RESEARCH BLVD,10,0.019417475728155338,30.3703606,-97.7225837
1203,NORTH INTERSTATE 35,10,0.019417475728155338,30.342750399999996,-97.7037491
1204,3800 BLOCK AIRPORT BOULEVARD,10,0.019417475728155338,30.287609200000002,-97.7074921
1205,6600 COLTON BLUFF SPRINGS RD,10,0.019417475728155338,30.1637967,-97.7376853
1206,1500 BLOCK NORTH IH 35,10,0.019417475728155338,30.4434082,-97.66832190000001
1207,2700 S IH 35 NB,10,0.019417475728155338,30.2295983,-97.7446016
1208,8000 BLOCK BURNET ROAD,10,0.019417475728155338,30.35844629999999,-97.7302111
1209,1700 CROSSING PLACE,10,0.019417475728155338,30.233774699999998,-97.7160551
1210,3400 E MLK BLVD,10,0.019417475728155338,30.283424,-97.7001839
1211,6000 N IH 35 SB,10,0.019417475728155338,,
1212,10000 N LAMAR BLVD,10,0.019417475728155338,30.3694186,-97.6952223
1213,3000 BLOCK NORTH IH 35,10,0.019417475728155338,30.288498999999998,-97.7242752
1214,WEST 25TH STREET,10,0.019417475728155338,30.2894339,-97.7463548
1215,2500 BLOCK E RIVERSIDE,10,0.019417475728155338,30.2354798,-97.7235459
1216,7900 MANCHACA ROAD,10,0.019417475728155338,30.1924053,-97.8121798
1217,1000 BLOCK WEST 25TH STREET,10,0.019417475728155338,30.289716,-97.74796200000002
1218,13100 N 183,10,0.019417475728155338,30.4743675,-97.7804686
1219,14000 N IH 35,10,0.019417475728155338,30.4293775,-97.6707686
1220,100 BLOCK BASTROP HIGHWAY,10,0.019417475728155338,30.246726000000002,-97.6911467
1221,4000 BLOCK PRESIDENTIAL BOULEVARD,10,0.019417475728155338,30.2027908,-97.6665583
1222,6500 S IH 35 NB,10,0.019417475728155338,30.266218,-97.746056
1223,8100 S  1ST ST,10,0.019417475728155338,30.1820835,-97.7945008
1224,1700 S US HWY 183,9,0.017475728155339806,30.221005600000005,-97.6833349
1225,9500 RESEARCH BLVD,9,0.017475728155339806,30.386287,-97.7445575
1226,6000 BLOCK SOUTH MOPAC EXPRESSWAY,9,0.017475728155339806,30.227012199999997,-97.83189420000001
1227,15TH STREET,9,0.017475728155339806,30.275299699999998,-97.733887
1228,11800 N MOPAC,9,0.017475728155339806,30.407664,-97.726501
1229,12700 RESEARCH BLVD SB,9,0.017475728155339806,,
1230,11800 N MOPAC EXPY,9,0.017475728155339806,30.407664,-97.726501
1231,5600 AIRPORT,9,0.017475728155339806,30.318788,-97.713545
1232,1900 S PLEASANT VALLEY RD,9,0.017475728155339806,30.2350728,-97.72191109999999
1233,800 RUTLAND DR,9,0.017475728155339806,30.364905699999998,-97.6960689
1234,800 W RUNDBERG LN,9,0.017475728155339806,30.3631753,-97.6969729
1235,1700 E WILLIAM CANNON DR,9,0.017475728155339806,30.1886526,-97.7658371
1236,6000 S MOPAC EXPY,9,0.017475728155339806,30.227012199999997,-97.83189420000001
1237,1500 BLOCK WEST WILLIAM CANNON DRIVE,9,0.017475728155339806,30.201591999999998,-97.7997945
1238,8000 BLOCK NORTH IH 35,9,0.017475728155339806,30.3413011,-97.6991575
1239,11500 METRIC BLVD,9,0.017475728155339806,30.3949239,-97.7086573
1240,1000 B E DEAN KEETON ST,9,0.017475728155339806,30.287138,-97.7263251
1241,6100 BLK N CAPITAL OF TEXAS,9,0.017475728155339806,30.3599049,-97.7910837
1242,3500 N MOPAC,9,0.017475728155339806,30.2006941,-97.86698759999999
1243,4500 S IH 35 NB,9,0.017475728155339806,30.27042,-97.74444
1244,9400 RESEARCH BLVD NB,9,0.017475728155339806,30.370976000000002,-97.72681700000001
1245,800 BLOCK EAST 7TH STREET,9,0.017475728155339806,30.266576500000003,-97.7338578
1246,4500 E WILLIAM CANNON DR,9,0.017475728155339806,30.1840762,-97.75414570000001
1247,11700 METRIC BLVD,9,0.017475728155339806,30.3963168,-97.7068349
1248,5500 S MOPAC EXPY NB,9,0.017475728155339806,30.266218,-97.746056
1249,11900 N US 183,9,0.017475728155339806,30.2480512,-97.6907829
1250,7900 N MOPAC,9,0.017475728155339806,30.371707699999998,-97.7406695
1251,3500 S IH 35,9,0.017475728155339806,30.222975599999998,-97.7470619
1252,6000 BLOCK SOUTH IH 35,9,0.017475728155339806,30.1969727,-97.7661871
1253,6000 S IH 35 NB,9,0.017475728155339806,30.27042,-97.74444
1254,7800 BLOCK WEST GATE BOULEVARD,9,0.017475728155339806,30.19931789999999,-97.8222416
1255,9500 BLOCK SOUTH IH 35,9,0.017475728155339806,30.1652537,-97.7928559
1256,S IH 35 SB,9,0.017475728155339806,30.1554474,-97.79254370000001
1257,5200 N IH 35 NB,9,0.017475728155339806,30.320123,-97.73148
1258,100 LAVACA,9,0.017475728155339806,30.2647974,-97.7466656
1259,2500 BLOCK NORTH MOPAC EXPRESSWAY,9,0.017475728155339806,30.3742785,-97.7297767
1260,100 BASTROP HWY NB,9,0.017475728155339806,30.27579,-97.73603
1261,700 BLOCK EAST DEAN KEATON ROAD,9,0.017475728155339806,30.289466700000002,-97.7313141
1262,100 BLK S 1ST,9,0.017475728155339806,30.262196000000003,-97.7482379
1263,700 BLOCK EAST WILLIAM CANNON DRIVE,9,0.017475728155339806,30.191960100000003,-97.7730493
1264,4800 BLOCK EAST RIVERSIDE DRIVE,9,0.017475728155339806,30.2317275,-97.71751090000001
1265,700 BLOCK NORTH IH 35,9,0.017475728155339806,30.2668669,-97.7346612
1266,4700 S 1ST ST,9,0.017475728155339806,30.2160778,-97.776014
1267,7500 BLOCK NORTH IH 35,9,0.017475728155339806,30.336316200000002,-97.7024183
1268,1100 E OLTORF,9,0.017475728155339806,30.236504999999998,-97.74504300000001
1269,4700 PARMER,9,0.017475728155339806,30.4293173,-97.7225038
1270,4700 FM2222,9,0.017475728155339806,30.41768799999999,-97.6991515
1271,BLOCK N. IH 35 SVRD,9,0.017475728155339806,30.3154622,-97.7051168
1272,2400 S IH 35,9,0.017475728155339806,30.232780100000003,-97.7427145
1273,1100 W PARMER LN,9,0.017475728155339806,30.408493800000002,-97.6786626
1274,2600 BLOCK EAST MARTIN LUTHER KING JR,9,0.017475728155339806,30.281564000000003,-97.714005
1275,4800 BLOCK WEST PARMER LANE,9,0.017475728155339806,30.429829100000003,-97.723458
1276,4800 E CESAR CHAVEZ ST,9,0.017475728155339806,30.2520695,-97.7008957
1277,2600 BLOCK SOUTH IH 35,9,0.017475728155339806,30.2306071,-97.7439132
1278,WEST FRONTAGE S I H 35,9,0.017475728155339806,30.235276000000002,-97.741559
1279,300 BLOCK WEST POWELL LANE,9,0.017475728155339806,30.349187699999998,-97.7056881
1280,10 N IH 35 NB,9,0.017475728155339806,30.27042,-97.74444
1281,BLOCK E 51ST ST,9,0.017475728155339806,30.3014374,-97.69308670000001
1282,26TH STREET,9,0.017475728155339806,30.290723200000002,-97.7453479
1283,5000 W PARMER,9,0.017475728155339806,30.430894300000002,-97.7254845
1284,6900 BLOCK MANCHACA ROAD,9,0.017475728155339806,30.203355900000002,-97.8068041
1285,5000 S IH 35 SB,9,0.017475728155339806,30.1594697,-97.7926701
1286,2700 GUADALUPE ST,9,0.017475728155339806,30.292216600000003,-97.7416529
1287,6800 N MOPAC EXPY,9,0.017475728155339806,30.371707699999998,-97.7406695
1288,6600 N MOPAC EXPY,9,0.017475728155339806,30.371707699999998,-97.7406695
1289,2900 S IH 35,9,0.017475728155339806,30.227482399999996,-97.7453387
1290,5300 N MOPAC,9,0.017475728155339806,30.233735600000003,-97.82782900000001
1291,5400 E RIVERSIDE DR,9,0.017475728155339806,30.229537699999998,-97.71257309999999
1292,WEST 15TH STREET,9,0.017475728155339806,30.278391499999998,-97.7449027
1293,700 W STASSNEY,9,0.017475728155339806,30.208524600000004,-97.7814636
1294,2000 W. RUNDBERG LN,9,0.017475728155339806,30.375305400000002,-97.7196386
1295,200 BLOCK WEST BRAKER LANE,9,0.017475728155339806,30.3792696,-97.68186440000001
1296,5500 BLOCK SOUTH IH 35,9,0.017475728155339806,30.202151,-97.764748
1297,3400 BLOCK EAST MARTIN LUTHER KING JR.,9,0.017475728155339806,30.283424,-97.7001839
1298,SOUTH IH35 SERVICE ROAD AT,9,0.017475728155339806,30.1373595,-97.7976178
1299,4600 BLOCK NORTH MOPAC EXPRESSWAY,9,0.017475728155339806,30.3742785,-97.7297767
1300,7400 MANCHACA,9,0.017475728155339806,30.196915,-97.8092948
1301,7400 E. U.S. 290 WB PROPER,9,0.017475728155339806,,
1302,7400 E HWY 290 SVC,9,0.017475728155339806,30.235615000000003,-97.8536471
1303,100 E CESAR CHAVEZ,9,0.017475728155339806,30.2633744,-97.7445323
1304,7400 BLOCK EAST US HWY 290,9,0.017475728155339806,30.232907399999995,-97.7975128
1305,7400 BLOCK EAST BEN WHITE BOULEVARD,9,0.017475728155339806,30.218152000000003,-97.69514000000001
1306,7300 WEST GATE BLVD,9,0.017475728155339806,30.203447999999998,-97.81747359999999
1307,2000 N IH 35,9,0.017475728155339806,30.4896404,-97.6804161
1308,7300 N MOPAC,9,0.017475728155339806,30.371707699999998,-97.7406695
1309,7300 BLOCK NORTH IH 35,9,0.017475728155339806,30.3343455,-97.7039176
1310,BLOCK NORTH I-35 EF,9,0.017475728155339806,30.3550115,-97.7594328
1311,100 BLOCK WEST SLAUGHTER LANE,9,0.017475728155339806,30.16712159999999,-97.786861
1312,9800 BLOCK MANCHACA ROAD,9,0.017475728155339806,30.1747541,-97.82335520000001
1313,4600 VINSON DR,9,0.017475728155339806,30.2195376,-97.7782779
1314,7200 BLOCK F M 2222,9,0.017475728155339806,30.369455300000002,-97.8019391
1315,100 BLOCK SOUTH CONGRESS AVENUE,9,0.017475728155339806,30.2605781,-97.7456796
1316,5000 BLOCK SOUTH IH 35,9,0.017475728155339806,30.205326300000003,-97.7605719
1317,6400 BLOCK SOUTH 1ST STREET,9,0.017475728155339806,30.200446600000003,-97.78621209999999
1318,6400 CAPITAL OF TEXAS,9,0.017475728155339806,30.3637178,-97.790294
1319,W 45TH ST,9,0.017475728155339806,30.3162044,-97.7433696
1320,3000 S US HWY 183 NB,9,0.017475728155339806,30.207078000000003,-97.684663
1321,9900 BLOCK SOUTH IH 35,9,0.017475728155339806,30.156232199999998,-97.7930385
1322,100 BLOCK EAST BEN WHITE BOULEVARD,9,0.017475728155339806,30.223133899999997,-97.76314690000001
1323,7000 BLOCK EAST BEN WHITE BOULEVARD,9,0.017475728155339806,30.217629700000003,-97.7017875
1324,6500 BLOCK ED BLUESTEIN BOULEVARD,9,0.017475728155339806,30.303361,-97.661753
1325,4400 W PARMER LN,9,0.017475728155339806,30.427737899999997,-97.71936020000001
1326,11900 N MOPAC,9,0.017475728155339806,30.371707699999998,-97.7406695
1327,1500 BLOCK NORTH MOPAC EXPRESSWAY,9,0.017475728155339806,30.3742785,-97.7297767
1328,5900 N MOPAC EXPY NB,9,0.017475728155339806,,
1329,13400 N US 183 HWY NB,9,0.017475728155339806,30.5060468,-97.8203465
1330,8600 ANDERSON MILL RD,9,0.017475728155339806,30.4561929,-97.7670282
1331,8600 ANDERSON MILL,9,0.017475728155339806,30.4561929,-97.7670282
